[{"Unnamed: 0":0,"Glacier Name":"Brady Glacier","Glacier Exists?":"Exists","Area":495.176,"Glacier Melt Record Date":null,"Latitude":58.385483,"Longitude":-136.675873,"Area Analysis Date":"2006-05-01","Temperature in F":46.77},{"Unnamed: 0":1,"Glacier Name":"Marvine\/Hayden Glacier","Glacier Exists?":"Exists","Area":297.56,"Glacier Melt Record Date":null,"Latitude":59.96069,"Longitude":-140.10202,"Area Analysis Date":"2007-08-01","Temperature in F":55.43},{"Unnamed: 0":2,"Glacier Name":"Johns Hopkins Glacier","Glacier Exists?":"Exists","Area":162.882,"Glacier Melt Record Date":null,"Latitude":58.805875,"Longitude":-137.260638,"Area Analysis Date":"2006-05-01","Temperature in F":46.77},{"Unnamed: 0":3,"Glacier Name":"Brady Glacier","Glacier Exists?":"Exists","Area":495.176,"Glacier Melt Record Date":null,"Latitude":58.385483,"Longitude":-136.675873,"Area Analysis Date":"2006-05-01","Temperature in F":46.77},{"Unnamed: 0":4,"Glacier Name":"Brady Glacier","Glacier Exists?":"Exists","Area":495.176,"Glacier Melt Record Date":null,"Latitude":58.385483,"Longitude":-136.675873,"Area Analysis Date":"2006-05-01","Temperature in F":46.77},{"Unnamed: 0":5,"Glacier Name":"Brady Glacier","Glacier Exists?":"Exists","Area":495.176,"Glacier Melt Record Date":null,"Latitude":58.385483,"Longitude":-136.675873,"Area Analysis Date":"2006-05-01","Temperature in F":46.77},{"Unnamed: 0":6,"Glacier Name":"Brady Glacier","Glacier Exists?":"Exists","Area":495.176,"Glacier Melt Record Date":null,"Latitude":58.385483,"Longitude":-136.675873,"Area Analysis Date":"2006-05-01","Temperature in F":46.77},{"Unnamed: 0":7,"Glacier Name":"Brady Glacier","Glacier Exists?":"Exists","Area":495.176,"Glacier Melt Record Date":null,"Latitude":58.385483,"Longitude":-136.675873,"Area Analysis Date":"2006-05-01","Temperature in F":46.77},{"Unnamed: 0":8,"Glacier Name":"Brady Glacier","Glacier Exists?":"Exists","Area":495.176,"Glacier Melt Record Date":null,"Latitude":58.385483,"Longitude":-136.675873,"Area Analysis Date":"2006-05-01","Temperature in F":46.77},{"Unnamed: 0":9,"Glacier Name":"Finger Glacier","Glacier Exists?":"Exists","Area":35.4017,"Glacier Melt Record Date":null,"Latitude":58.457594,"Longitude":-137.162412,"Area Analysis Date":"2006-05-01","Temperature in F":46.77},{"Unnamed: 0":10,"Glacier Name":"Finger Glacier","Glacier Exists?":"Exists","Area":35.4017,"Glacier Melt Record Date":null,"Latitude":58.457594,"Longitude":-137.162412,"Area Analysis Date":"2006-05-01","Temperature in F":46.77},{"Unnamed: 0":11,"Glacier Name":"Finger Glacier","Glacier Exists?":"Exists","Area":35.4017,"Glacier Melt Record Date":null,"Latitude":58.457594,"Longitude":-137.162412,"Area Analysis Date":"2006-05-01","Temperature in F":46.77},{"Unnamed: 0":12,"Glacier Name":"Finger Glacier","Glacier Exists?":"Exists","Area":35.4017,"Glacier Melt Record Date":null,"Latitude":58.457594,"Longitude":-137.162412,"Area Analysis Date":"2006-05-01","Temperature in F":46.77},{"Unnamed: 0":13,"Glacier Name":"La Perouse Glacier","Glacier Exists?":"Exists","Area":113.703,"Glacier Melt Record Date":null,"Latitude":58.52018,"Longitude":-137.328166,"Area Analysis Date":"2006-05-01","Temperature in F":46.77},{"Unnamed: 0":14,"Glacier Name":"La Perouse Glacier","Glacier Exists?":"Exists","Area":113.703,"Glacier Melt Record Date":null,"Latitude":58.52018,"Longitude":-137.328166,"Area Analysis Date":"2006-05-01","Temperature in F":46.77},{"Unnamed: 0":15,"Glacier Name":"La Perouse Glacier","Glacier Exists?":"Exists","Area":113.703,"Glacier Melt Record Date":null,"Latitude":58.52018,"Longitude":-137.328166,"Area Analysis Date":"2006-05-01","Temperature in F":46.77},{"Unnamed: 0":16,"Glacier Name":"Johns Hopkins Glacier","Glacier Exists?":"Exists","Area":162.882,"Glacier Melt Record Date":null,"Latitude":58.805875,"Longitude":-137.260638,"Area Analysis Date":"2006-05-01","Temperature in F":46.77},{"Unnamed: 0":17,"Glacier Name":"Steller Glacier","Glacier Exists?":"Exists","Area":741.556,"Glacier Melt Record Date":null,"Latitude":60.296987,"Longitude":-143.870037,"Area Analysis Date":"2006-04-01","Temperature in F":42.9},{"Unnamed: 0":18,"Glacier Name":"Johns Hopkins Glacier","Glacier Exists?":"Exists","Area":162.882,"Glacier Melt Record Date":null,"Latitude":58.805875,"Longitude":-137.260638,"Area Analysis Date":"2006-05-01","Temperature in F":46.77},{"Unnamed: 0":19,"Glacier Name":"Seward Glacier","Glacier Exists?":"Exists","Area":3211.8,"Glacier Melt Record Date":null,"Latitude":59.92591,"Longitude":-140.23062,"Area Analysis Date":"2007-04-01","Temperature in F":40.49},{"Unnamed: 0":20,"Glacier Name":"Tweedsmuir Glacier","Glacier Exists?":"Exists","Area":501.581,"Glacier Melt Record Date":null,"Latitude":59.831715,"Longitude":-138.149354,"Area Analysis Date":"2007-11-01","Temperature in F":55.5},{"Unnamed: 0":21,"Glacier Name":"East Nunatak Glacier","Glacier Exists?":"Exists","Area":70.7577,"Glacier Melt Record Date":null,"Latitude":59.786135,"Longitude":-138.772752,"Area Analysis Date":"2007-05-01","Temperature in F":44.85},{"Unnamed: 0":22,"Glacier Name":"East Nunatak Glacier","Glacier Exists?":"Exists","Area":70.7577,"Glacier Melt Record Date":null,"Latitude":59.786135,"Longitude":-138.772752,"Area Analysis Date":"2007-05-01","Temperature in F":44.85},{"Unnamed: 0":23,"Glacier Name":"Tweedsmuir Glacier","Glacier Exists?":"Exists","Area":501.581,"Glacier Melt Record Date":null,"Latitude":59.831715,"Longitude":-138.149354,"Area Analysis Date":"2007-11-01","Temperature in F":55.5},{"Unnamed: 0":24,"Glacier Name":"East Nunatak Glacier","Glacier Exists?":"Exists","Area":70.7577,"Glacier Melt Record Date":null,"Latitude":59.786135,"Longitude":-138.772752,"Area Analysis Date":"2007-05-01","Temperature in F":44.85},{"Unnamed: 0":25,"Glacier Name":"Hidden Glacier","Glacier Exists?":"Exists","Area":55.2523,"Glacier Melt Record Date":null,"Latitude":59.735487,"Longitude":-139.151114,"Area Analysis Date":"2007-05-01","Temperature in F":44.85},{"Unnamed: 0":26,"Glacier Name":"West Nunatak Glacier","Glacier Exists?":"Exists","Area":87.6204,"Glacier Melt Record Date":null,"Latitude":59.750394,"Longitude":-138.915651,"Area Analysis Date":"2007-05-01","Temperature in F":44.85},{"Unnamed: 0":27,"Glacier Name":"East Yakutat Glacier","Glacier Exists?":"Exists","Area":359.025,"Glacier Melt Record Date":null,"Latitude":59.50512,"Longitude":-138.72468,"Area Analysis Date":"2007-05-01","Temperature in F":44.85},{"Unnamed: 0":28,"Glacier Name":"East Yakutat Glacier","Glacier Exists?":"Exists","Area":359.025,"Glacier Melt Record Date":null,"Latitude":59.50512,"Longitude":-138.72468,"Area Analysis Date":"2007-05-01","Temperature in F":44.85},{"Unnamed: 0":29,"Glacier Name":"East Yakutat Glacier","Glacier Exists?":"Exists","Area":359.025,"Glacier Melt Record Date":null,"Latitude":59.50512,"Longitude":-138.72468,"Area Analysis Date":"2007-05-01","Temperature in F":44.85},{"Unnamed: 0":30,"Glacier Name":"Johns Hopkins Glacier","Glacier Exists?":"Exists","Area":162.882,"Glacier Melt Record Date":null,"Latitude":58.805875,"Longitude":-137.260638,"Area Analysis Date":"2006-05-01","Temperature in F":46.77},{"Unnamed: 0":31,"Glacier Name":"Johns Hopkins Glacier","Glacier Exists?":"Exists","Area":162.882,"Glacier Melt Record Date":null,"Latitude":58.805875,"Longitude":-137.260638,"Area Analysis Date":"2006-05-01","Temperature in F":46.77},{"Unnamed: 0":32,"Glacier Name":"Johns Hopkins Glacier","Glacier Exists?":"Exists","Area":162.882,"Glacier Melt Record Date":null,"Latitude":58.805875,"Longitude":-137.260638,"Area Analysis Date":"2006-05-01","Temperature in F":46.77},{"Unnamed: 0":33,"Glacier Name":"Hubbard Glacier","Glacier Exists?":"Exists","Area":2910.92,"Glacier Melt Record Date":null,"Latitude":60.002244,"Longitude":-139.36059,"Area Analysis Date":"2007-08-01","Temperature in F":55.43},{"Unnamed: 0":34,"Glacier Name":"Novatak Glacier","Glacier Exists?":"Exists","Area":126.185,"Glacier Melt Record Date":null,"Latitude":59.421213,"Longitude":-138.38592,"Area Analysis Date":"2007-05-01","Temperature in F":44.85},{"Unnamed: 0":35,"Glacier Name":"Novatak Glacier","Glacier Exists?":"Exists","Area":126.185,"Glacier Melt Record Date":null,"Latitude":59.421213,"Longitude":-138.38592,"Area Analysis Date":"2007-05-01","Temperature in F":44.85},{"Unnamed: 0":36,"Glacier Name":"Novatak Glacier","Glacier Exists?":"Exists","Area":126.185,"Glacier Melt Record Date":null,"Latitude":59.421213,"Longitude":-138.38592,"Area Analysis Date":"2007-05-01","Temperature in F":44.85},{"Unnamed: 0":37,"Glacier Name":"Novatak Glacier","Glacier Exists?":"Exists","Area":126.185,"Glacier Melt Record Date":null,"Latitude":59.421213,"Longitude":-138.38592,"Area Analysis Date":"2007-05-01","Temperature in F":44.85},{"Unnamed: 0":38,"Glacier Name":"Johns Hopkins Glacier","Glacier Exists?":"Exists","Area":162.882,"Glacier Melt Record Date":null,"Latitude":58.805875,"Longitude":-137.260638,"Area Analysis Date":"2006-05-01","Temperature in F":46.77},{"Unnamed: 0":39,"Glacier Name":"Carroll Glacier","Glacier Exists?":"Exists","Area":400.86,"Glacier Melt Record Date":null,"Latitude":59.028904,"Longitude":-136.459499,"Area Analysis Date":"2007-04-01","Temperature in F":40.49},{"Unnamed: 0":40,"Glacier Name":"Johns Hopkins Glacier","Glacier Exists?":"Exists","Area":162.882,"Glacier Melt Record Date":null,"Latitude":58.805875,"Longitude":-137.260638,"Area Analysis Date":"2006-05-01","Temperature in F":46.77},{"Unnamed: 0":41,"Glacier Name":"Johns Hopkins Glacier","Glacier Exists?":"Exists","Area":162.882,"Glacier Melt Record Date":null,"Latitude":58.805875,"Longitude":-137.260638,"Area Analysis Date":"2006-05-01","Temperature in F":46.77},{"Unnamed: 0":42,"Glacier Name":"Johns Hopkins Glacier","Glacier Exists?":"Exists","Area":162.882,"Glacier Melt Record Date":null,"Latitude":58.805875,"Longitude":-137.260638,"Area Analysis Date":"2006-05-01","Temperature in F":46.77},{"Unnamed: 0":43,"Glacier Name":"Johns Hopkins Glacier","Glacier Exists?":"Exists","Area":162.882,"Glacier Melt Record Date":null,"Latitude":58.805875,"Longitude":-137.260638,"Area Analysis Date":"2006-05-01","Temperature in F":46.77},{"Unnamed: 0":44,"Glacier Name":"Johns Hopkins Glacier","Glacier Exists?":"Exists","Area":162.882,"Glacier Melt Record Date":null,"Latitude":58.805875,"Longitude":-137.260638,"Area Analysis Date":"2006-05-01","Temperature in F":46.77},{"Unnamed: 0":45,"Glacier Name":"Johns Hopkins Glacier","Glacier Exists?":"Exists","Area":162.882,"Glacier Melt Record Date":null,"Latitude":58.805875,"Longitude":-137.260638,"Area Analysis Date":"2006-05-01","Temperature in F":46.77},{"Unnamed: 0":46,"Glacier Name":"Johns Hopkins Glacier","Glacier Exists?":"Exists","Area":162.882,"Glacier Melt Record Date":null,"Latitude":58.805875,"Longitude":-137.260638,"Area Analysis Date":"2006-05-01","Temperature in F":46.77},{"Unnamed: 0":47,"Glacier Name":"Johns Hopkins Glacier","Glacier Exists?":"Exists","Area":162.882,"Glacier Melt Record Date":null,"Latitude":58.805875,"Longitude":-137.260638,"Area Analysis Date":"2006-05-01","Temperature in F":46.77},{"Unnamed: 0":48,"Glacier Name":"Lamplugh Glacier","Glacier Exists?":"Exists","Area":133.881,"Glacier Melt Record Date":null,"Latitude":58.874451,"Longitude":-136.935832,"Area Analysis Date":"2006-05-01","Temperature in F":46.77},{"Unnamed: 0":49,"Glacier Name":"Lamplugh Glacier","Glacier Exists?":"Exists","Area":133.881,"Glacier Melt Record Date":null,"Latitude":58.874451,"Longitude":-136.935832,"Area Analysis Date":"2006-05-01","Temperature in F":46.77},{"Unnamed: 0":50,"Glacier Name":"Johns Hopkins Glacier","Glacier Exists?":"Exists","Area":162.882,"Glacier Melt Record Date":null,"Latitude":58.805875,"Longitude":-137.260638,"Area Analysis Date":"2006-05-01","Temperature in F":46.77},{"Unnamed: 0":51,"Glacier Name":"Johns Hopkins Glacier","Glacier Exists?":"Exists","Area":162.882,"Glacier Melt Record Date":null,"Latitude":58.805875,"Longitude":-137.260638,"Area Analysis Date":"2006-05-01","Temperature in F":46.77},{"Unnamed: 0":52,"Glacier Name":"Grand Plateau Glacier","Glacier Exists?":"Exists","Area":383.689,"Glacier Melt Record Date":null,"Latitude":58.98445,"Longitude":-137.91017,"Area Analysis Date":"2007-04-01","Temperature in F":40.49},{"Unnamed: 0":53,"Glacier Name":"Hayden","Glacier Exists?":"Exists","Area":73.4037,"Glacier Melt Record Date":null,"Latitude":59.978541,"Longitude":-140.019668,"Area Analysis Date":"2007-10-01","Temperature in F":56.65},{"Unnamed: 0":54,"Glacier Name":"Blossom Glacier","Glacier Exists?":"Exists","Area":7.73568,"Glacier Melt Record Date":null,"Latitude":60.007745,"Longitude":-140.090472,"Area Analysis Date":"2007-10-01","Temperature in F":56.65},{"Unnamed: 0":55,"Glacier Name":"Hubbard Glacier","Glacier Exists?":"Exists","Area":2910.92,"Glacier Melt Record Date":null,"Latitude":60.002244,"Longitude":-139.36059,"Area Analysis Date":"2007-08-01","Temperature in F":55.43},{"Unnamed: 0":56,"Glacier Name":"Bering Glacier","Glacier Exists?":"Exists","Area":3629.47,"Glacier Melt Record Date":null,"Latitude":60.43403,"Longitude":-143.01148,"Area Analysis Date":"2007-04-01","Temperature in F":40.49},{"Unnamed: 0":57,"Glacier Name":"Martin River Glacier","Glacier Exists?":"Exists","Area":349.102,"Glacier Melt Record Date":null,"Latitude":60.51844,"Longitude":-144.01596,"Area Analysis Date":"2007-03-01","Temperature in F":37.13},{"Unnamed: 0":58,"Glacier Name":"Miles Glacier","Glacier Exists?":"Exists","Area":382.882,"Glacier Melt Record Date":null,"Latitude":60.67431,"Longitude":-144.58396,"Area Analysis Date":"2007-04-01","Temperature in F":40.49},{"Unnamed: 0":59,"Glacier Name":"Miles Glacier","Glacier Exists?":"Exists","Area":382.882,"Glacier Melt Record Date":null,"Latitude":60.67431,"Longitude":-144.58396,"Area Analysis Date":"2007-04-01","Temperature in F":40.49},{"Unnamed: 0":60,"Glacier Name":"Van Cleve Glacier","Glacier Exists?":"Exists","Area":40.0665,"Glacier Melt Record Date":null,"Latitude":60.695309,"Longitude":-144.244764,"Area Analysis Date":"2007-04-01","Temperature in F":40.49},{"Unnamed: 0":61,"Glacier Name":"Wernicke Glacier","Glacier Exists?":"Exists","Area":105.487,"Glacier Melt Record Date":null,"Latitude":60.802183,"Longitude":-144.223268,"Area Analysis Date":"2007-04-01","Temperature in F":40.49},{"Unnamed: 0":62,"Glacier Name":"Fan Glacier","Glacier Exists?":"Exists","Area":164.449,"Glacier Melt Record Date":null,"Latitude":60.874959,"Longitude":-143.907576,"Area Analysis Date":"2007-04-01","Temperature in F":40.49},{"Unnamed: 0":63,"Glacier Name":"Fan Glacier","Glacier Exists?":"Exists","Area":164.449,"Glacier Melt Record Date":null,"Latitude":60.874959,"Longitude":-143.907576,"Area Analysis Date":"2007-04-01","Temperature in F":40.49},{"Unnamed: 0":64,"Glacier Name":"Bering Glacier","Glacier Exists?":"Exists","Area":3629.47,"Glacier Melt Record Date":null,"Latitude":60.43403,"Longitude":-143.01148,"Area Analysis Date":"2007-04-01","Temperature in F":40.49},{"Unnamed: 0":65,"Glacier Name":"Bering Glacier","Glacier Exists?":"Exists","Area":3629.47,"Glacier Melt Record Date":null,"Latitude":60.43403,"Longitude":-143.01148,"Area Analysis Date":"2007-04-01","Temperature in F":40.49},{"Unnamed: 0":66,"Glacier Name":"Bering Glacier","Glacier Exists?":"Exists","Area":3629.47,"Glacier Melt Record Date":null,"Latitude":60.43403,"Longitude":-143.01148,"Area Analysis Date":"2007-04-01","Temperature in F":40.49},{"Unnamed: 0":67,"Glacier Name":"Bering Glacier","Glacier Exists?":"Exists","Area":3629.47,"Glacier Melt Record Date":null,"Latitude":60.43403,"Longitude":-143.01148,"Area Analysis Date":"2007-04-01","Temperature in F":40.49},{"Unnamed: 0":68,"Glacier Name":"Bering Glacier","Glacier Exists?":"Exists","Area":3629.47,"Glacier Melt Record Date":null,"Latitude":60.43403,"Longitude":-143.01148,"Area Analysis Date":"2007-04-01","Temperature in F":40.49},{"Unnamed: 0":69,"Glacier Name":"Bering Glacier","Glacier Exists?":"Exists","Area":3629.47,"Glacier Melt Record Date":null,"Latitude":60.43403,"Longitude":-143.01148,"Area Analysis Date":"2007-04-01","Temperature in F":40.49},{"Unnamed: 0":70,"Glacier Name":"Bering Glacier","Glacier Exists?":"Exists","Area":3629.47,"Glacier Melt Record Date":null,"Latitude":60.43403,"Longitude":-143.01148,"Area Analysis Date":"2007-04-01","Temperature in F":40.49},{"Unnamed: 0":71,"Glacier Name":"Martin River Glacier","Glacier Exists?":"Exists","Area":349.102,"Glacier Melt Record Date":null,"Latitude":60.51844,"Longitude":-144.01596,"Area Analysis Date":"2007-03-01","Temperature in F":37.13},{"Unnamed: 0":72,"Glacier Name":"Martin River Glacier","Glacier Exists?":"Exists","Area":349.102,"Glacier Melt Record Date":null,"Latitude":60.51844,"Longitude":-144.01596,"Area Analysis Date":"2007-03-01","Temperature in F":37.13},{"Unnamed: 0":73,"Glacier Name":"Martin River Glacier","Glacier Exists?":"Exists","Area":349.102,"Glacier Melt Record Date":null,"Latitude":60.51844,"Longitude":-144.01596,"Area Analysis Date":"2007-03-01","Temperature in F":37.13},{"Unnamed: 0":74,"Glacier Name":"Steller Glacier","Glacier Exists?":"Exists","Area":741.556,"Glacier Melt Record Date":null,"Latitude":60.296987,"Longitude":-143.870037,"Area Analysis Date":"2006-04-01","Temperature in F":42.9},{"Unnamed: 0":75,"Glacier Name":"Steller Glacier","Glacier Exists?":"Exists","Area":741.556,"Glacier Melt Record Date":null,"Latitude":60.296987,"Longitude":-143.870037,"Area Analysis Date":"2006-04-01","Temperature in F":42.9},{"Unnamed: 0":76,"Glacier Name":"Steller Glacier","Glacier Exists?":"Exists","Area":741.556,"Glacier Melt Record Date":null,"Latitude":60.296987,"Longitude":-143.870037,"Area Analysis Date":"2006-04-01","Temperature in F":42.9},{"Unnamed: 0":77,"Glacier Name":"Steller Glacier","Glacier Exists?":"Exists","Area":741.556,"Glacier Melt Record Date":null,"Latitude":60.296987,"Longitude":-143.870037,"Area Analysis Date":"2006-04-01","Temperature in F":42.9},{"Unnamed: 0":78,"Glacier Name":"Bering Glacier","Glacier Exists?":"Exists","Area":3629.47,"Glacier Melt Record Date":null,"Latitude":60.43403,"Longitude":-143.01148,"Area Analysis Date":"2007-04-01","Temperature in F":40.49},{"Unnamed: 0":79,"Glacier Name":"Bering Glacier","Glacier Exists?":"Exists","Area":3629.47,"Glacier Melt Record Date":null,"Latitude":60.43403,"Longitude":-143.01148,"Area Analysis Date":"2007-04-01","Temperature in F":40.49},{"Unnamed: 0":80,"Glacier Name":"Bering Glacier","Glacier Exists?":"Exists","Area":3629.47,"Glacier Melt Record Date":null,"Latitude":60.43403,"Longitude":-143.01148,"Area Analysis Date":"2007-04-01","Temperature in F":40.49},{"Unnamed: 0":81,"Glacier Name":"Bering Glacier","Glacier Exists?":"Exists","Area":3629.47,"Glacier Melt Record Date":null,"Latitude":60.43403,"Longitude":-143.01148,"Area Analysis Date":"2007-04-01","Temperature in F":40.49},{"Unnamed: 0":82,"Glacier Name":"White River Glacier","Glacier Exists?":"Exists","Area":27.8374,"Glacier Melt Record Date":null,"Latitude":60.067377,"Longitude":-142.097207,"Area Analysis Date":"2006-02-01","Temperature in F":36.88},{"Unnamed: 0":83,"Glacier Name":"White River Glacier","Glacier Exists?":"Exists","Area":27.8374,"Glacier Melt Record Date":null,"Latitude":60.067377,"Longitude":-142.097207,"Area Analysis Date":"2006-02-01","Temperature in F":36.88},{"Unnamed: 0":84,"Glacier Name":"White River Glacier","Glacier Exists?":"Exists","Area":27.8374,"Glacier Melt Record Date":null,"Latitude":60.067377,"Longitude":-142.097207,"Area Analysis Date":"2006-02-01","Temperature in F":36.88},{"Unnamed: 0":85,"Glacier Name":"White River Glacier","Glacier Exists?":"Exists","Area":27.8374,"Glacier Melt Record Date":null,"Latitude":60.067377,"Longitude":-142.097207,"Area Analysis Date":"2006-02-01","Temperature in F":36.88},{"Unnamed: 0":86,"Glacier Name":"White River Glacier","Glacier Exists?":"Exists","Area":27.8374,"Glacier Melt Record Date":null,"Latitude":60.067377,"Longitude":-142.097207,"Area Analysis Date":"2006-02-01","Temperature in F":36.88},{"Unnamed: 0":87,"Glacier Name":"White River Glacier","Glacier Exists?":"Exists","Area":27.8374,"Glacier Melt Record Date":null,"Latitude":60.067377,"Longitude":-142.097207,"Area Analysis Date":"2006-02-01","Temperature in F":36.88},{"Unnamed: 0":88,"Glacier Name":"Martin River Glacier","Glacier Exists?":"Exists","Area":349.102,"Glacier Melt Record Date":null,"Latitude":60.51844,"Longitude":-144.01596,"Area Analysis Date":"2007-03-01","Temperature in F":37.13},{"Unnamed: 0":89,"Glacier Name":"Martin River Glacier","Glacier Exists?":"Exists","Area":349.102,"Glacier Melt Record Date":null,"Latitude":60.51844,"Longitude":-144.01596,"Area Analysis Date":"2007-03-01","Temperature in F":37.13},{"Unnamed: 0":90,"Glacier Name":"Bering Glacier","Glacier Exists?":"Exists","Area":3629.47,"Glacier Melt Record Date":null,"Latitude":60.43403,"Longitude":-143.01148,"Area Analysis Date":"2007-04-01","Temperature in F":40.49},{"Unnamed: 0":91,"Glacier Name":"Bering Glacier","Glacier Exists?":"Exists","Area":3629.47,"Glacier Melt Record Date":null,"Latitude":60.43403,"Longitude":-143.01148,"Area Analysis Date":"2007-04-01","Temperature in F":40.49},{"Unnamed: 0":92,"Glacier Name":"Bering Glacier","Glacier Exists?":"Exists","Area":3629.47,"Glacier Melt Record Date":null,"Latitude":60.43403,"Longitude":-143.01148,"Area Analysis Date":"2007-04-01","Temperature in F":40.49},{"Unnamed: 0":93,"Glacier Name":"Bering Glacier","Glacier Exists?":"Exists","Area":3629.47,"Glacier Melt Record Date":null,"Latitude":60.43403,"Longitude":-143.01148,"Area Analysis Date":"2007-04-01","Temperature in F":40.49},{"Unnamed: 0":94,"Glacier Name":"Bering Glacier","Glacier Exists?":"Exists","Area":3629.47,"Glacier Melt Record Date":null,"Latitude":60.43403,"Longitude":-143.01148,"Area Analysis Date":"2007-04-01","Temperature in F":40.49},{"Unnamed: 0":95,"Glacier Name":"Bering Glacier","Glacier Exists?":"Exists","Area":3629.47,"Glacier Melt Record Date":null,"Latitude":60.43403,"Longitude":-143.01148,"Area Analysis Date":"2007-04-01","Temperature in F":40.49},{"Unnamed: 0":96,"Glacier Name":"Bering Glacier","Glacier Exists?":"Exists","Area":3629.47,"Glacier Melt Record Date":null,"Latitude":60.43403,"Longitude":-143.01148,"Area Analysis Date":"2007-04-01","Temperature in F":40.49},{"Unnamed: 0":97,"Glacier Name":"Watson Glacier","Glacier Exists?":"Exists","Area":103.495,"Glacier Melt Record Date":null,"Latitude":60.206297,"Longitude":-142.087199,"Area Analysis Date":"2006-02-01","Temperature in F":36.88},{"Unnamed: 0":98,"Glacier Name":"Leeper Glacier","Glacier Exists?":"Exists","Area":36.2084,"Glacier Melt Record Date":null,"Latitude":60.260135,"Longitude":-142.339841,"Area Analysis Date":"2006-02-01","Temperature in F":36.88},{"Unnamed: 0":99,"Glacier Name":"Steller Glacier","Glacier Exists?":"Exists","Area":741.556,"Glacier Melt Record Date":null,"Latitude":60.296987,"Longitude":-143.870037,"Area Analysis Date":"2006-04-01","Temperature in F":42.9},{"Unnamed: 0":100,"Glacier Name":"Steller Glacier","Glacier Exists?":"Exists","Area":741.556,"Glacier Melt Record Date":null,"Latitude":60.296987,"Longitude":-143.870037,"Area Analysis Date":"2006-04-01","Temperature in F":42.9},{"Unnamed: 0":101,"Glacier Name":"Steller Glacier","Glacier Exists?":"Exists","Area":741.556,"Glacier Melt Record Date":null,"Latitude":60.296987,"Longitude":-143.870037,"Area Analysis Date":"2006-04-01","Temperature in F":42.9},{"Unnamed: 0":102,"Glacier Name":"Steller Glacier","Glacier Exists?":"Exists","Area":741.556,"Glacier Melt Record Date":null,"Latitude":60.296987,"Longitude":-143.870037,"Area Analysis Date":"2006-04-01","Temperature in F":42.9},{"Unnamed: 0":103,"Glacier Name":"Steller Glacier","Glacier Exists?":"Exists","Area":741.556,"Glacier Melt Record Date":null,"Latitude":60.296987,"Longitude":-143.870037,"Area Analysis Date":"2006-04-01","Temperature in F":42.9},{"Unnamed: 0":104,"Glacier Name":"Bering Glacier","Glacier Exists?":"Exists","Area":3629.47,"Glacier Melt Record Date":null,"Latitude":60.43403,"Longitude":-143.01148,"Area Analysis Date":"2007-04-01","Temperature in F":40.49},{"Unnamed: 0":105,"Glacier Name":"Bering Glacier","Glacier Exists?":"Exists","Area":3629.47,"Glacier Melt Record Date":null,"Latitude":60.43403,"Longitude":-143.01148,"Area Analysis Date":"2007-04-01","Temperature in F":40.49},{"Unnamed: 0":106,"Glacier Name":"Bering Glacier","Glacier Exists?":"Exists","Area":3629.47,"Glacier Melt Record Date":null,"Latitude":60.43403,"Longitude":-143.01148,"Area Analysis Date":"2007-04-01","Temperature in F":40.49},{"Unnamed: 0":107,"Glacier Name":"Bering Glacier","Glacier Exists?":"Exists","Area":3629.47,"Glacier Melt Record Date":null,"Latitude":60.43403,"Longitude":-143.01148,"Area Analysis Date":"2007-04-01","Temperature in F":40.49},{"Unnamed: 0":108,"Glacier Name":"Logan Glacier","Glacier Exists?":"Exists","Area":126.829,"Glacier Melt Record Date":null,"Latitude":60.867051,"Longitude":-141.254512,"Area Analysis Date":"2006-02-01","Temperature in F":36.88},{"Unnamed: 0":109,"Glacier Name":"Logan Glacier","Glacier Exists?":"Exists","Area":126.829,"Glacier Melt Record Date":null,"Latitude":60.867051,"Longitude":-141.254512,"Area Analysis Date":"2006-02-01","Temperature in F":36.88},{"Unnamed: 0":110,"Glacier Name":"Seward Glacier","Glacier Exists?":"Exists","Area":3211.8,"Glacier Melt Record Date":null,"Latitude":59.92591,"Longitude":-140.23062,"Area Analysis Date":"2007-04-01","Temperature in F":40.49},{"Unnamed: 0":111,"Glacier Name":"Beare Glacier","Glacier Exists?":"Exists","Area":7.96516,"Glacier Melt Record Date":null,"Latitude":60.010169,"Longitude":-141.666534,"Area Analysis Date":"2006-02-01","Temperature in F":36.88},{"Unnamed: 0":112,"Glacier Name":"Agassiz Glacier","Glacier Exists?":"Exists","Area":764.325,"Glacier Melt Record Date":null,"Latitude":60.09895,"Longitude":-140.72458,"Area Analysis Date":"2006-02-01","Temperature in F":36.88},{"Unnamed: 0":113,"Glacier Name":"Baird Glacier","Glacier Exists?":"Exists","Area":449.255,"Glacier Melt Record Date":null,"Latitude":57.121144,"Longitude":-132.819608,"Area Analysis Date":"2006-06-01","Temperature in F":50.77},{"Unnamed: 0":114,"Glacier Name":"Patterson Glacier","Glacier Exists?":"Exists","Area":85.1219,"Glacier Melt Record Date":null,"Latitude":56.979015,"Longitude":-132.613465,"Area Analysis Date":"2006-04-01","Temperature in F":42.9},{"Unnamed: 0":115,"Glacier Name":"Patterson Glacier","Glacier Exists?":"Exists","Area":85.1219,"Glacier Melt Record Date":null,"Latitude":56.979015,"Longitude":-132.613465,"Area Analysis Date":"2006-04-01","Temperature in F":42.9},{"Unnamed: 0":116,"Glacier Name":"Patterson Glacier","Glacier Exists?":"Exists","Area":85.1219,"Glacier Melt Record Date":null,"Latitude":56.979015,"Longitude":-132.613465,"Area Analysis Date":"2006-04-01","Temperature in F":42.9},{"Unnamed: 0":117,"Glacier Name":"Patterson Glacier","Glacier Exists?":"Exists","Area":85.1219,"Glacier Melt Record Date":null,"Latitude":56.979015,"Longitude":-132.613465,"Area Analysis Date":"2006-04-01","Temperature in F":42.9},{"Unnamed: 0":118,"Glacier Name":"Patterson Glacier","Glacier Exists?":"Exists","Area":85.1219,"Glacier Melt Record Date":null,"Latitude":56.979015,"Longitude":-132.613465,"Area Analysis Date":"2006-04-01","Temperature in F":42.9},{"Unnamed: 0":119,"Glacier Name":"Patterson Glacier","Glacier Exists?":"Exists","Area":85.1219,"Glacier Melt Record Date":null,"Latitude":56.979015,"Longitude":-132.613465,"Area Analysis Date":"2006-04-01","Temperature in F":42.9},{"Unnamed: 0":120,"Glacier Name":"Oasis Glacier","Glacier Exists?":"Exists","Area":49.3846,"Glacier Melt Record Date":null,"Latitude":57.219964,"Longitude":-132.624582,"Area Analysis Date":"2006-03-01","Temperature in F":38.79},{"Unnamed: 0":121,"Glacier Name":"Baird Glacier","Glacier Exists?":"Exists","Area":449.255,"Glacier Melt Record Date":null,"Latitude":57.121144,"Longitude":-132.819608,"Area Analysis Date":"2006-06-01","Temperature in F":50.77},{"Unnamed: 0":122,"Glacier Name":"Baird Glacier","Glacier Exists?":"Exists","Area":449.255,"Glacier Melt Record Date":null,"Latitude":57.121144,"Longitude":-132.819608,"Area Analysis Date":"2006-06-01","Temperature in F":50.77},{"Unnamed: 0":123,"Glacier Name":"Baird Glacier","Glacier Exists?":"Exists","Area":449.255,"Glacier Melt Record Date":null,"Latitude":57.121144,"Longitude":-132.819608,"Area Analysis Date":"2006-06-01","Temperature in F":50.77},{"Unnamed: 0":124,"Glacier Name":"Oasis Glacier","Glacier Exists?":"Exists","Area":49.3846,"Glacier Melt Record Date":null,"Latitude":57.219964,"Longitude":-132.624582,"Area Analysis Date":"2006-03-01","Temperature in F":38.79},{"Unnamed: 0":125,"Glacier Name":"Baird Glacier","Glacier Exists?":"Exists","Area":449.255,"Glacier Melt Record Date":null,"Latitude":57.121144,"Longitude":-132.819608,"Area Analysis Date":"2006-06-01","Temperature in F":50.77},{"Unnamed: 0":126,"Glacier Name":"Baird Glacier","Glacier Exists?":"Exists","Area":449.255,"Glacier Melt Record Date":null,"Latitude":57.121144,"Longitude":-132.819608,"Area Analysis Date":"2006-06-01","Temperature in F":50.77},{"Unnamed: 0":127,"Glacier Name":"Baird Glacier","Glacier Exists?":"Exists","Area":449.255,"Glacier Melt Record Date":null,"Latitude":57.121144,"Longitude":-132.819608,"Area Analysis Date":"2006-06-01","Temperature in F":50.77},{"Unnamed: 0":128,"Glacier Name":"Grand Plateau Glacier","Glacier Exists?":"Exists","Area":383.689,"Glacier Melt Record Date":null,"Latitude":58.98445,"Longitude":-137.91017,"Area Analysis Date":"2007-04-01","Temperature in F":40.49},{"Unnamed: 0":129,"Glacier Name":"Grand Plateau Glacier","Glacier Exists?":"Exists","Area":383.689,"Glacier Melt Record Date":null,"Latitude":58.98445,"Longitude":-137.91017,"Area Analysis Date":"2007-04-01","Temperature in F":40.49},{"Unnamed: 0":130,"Glacier Name":"Grand Plateau Glacier","Glacier Exists?":"Exists","Area":383.689,"Glacier Melt Record Date":null,"Latitude":58.98445,"Longitude":-137.91017,"Area Analysis Date":"2007-04-01","Temperature in F":40.49},{"Unnamed: 0":131,"Glacier Name":"Grand Plateau Glacier","Glacier Exists?":"Exists","Area":383.689,"Glacier Melt Record Date":null,"Latitude":58.98445,"Longitude":-137.91017,"Area Analysis Date":"2007-04-01","Temperature in F":40.49},{"Unnamed: 0":132,"Glacier Name":"Margerie Glacier","Glacier Exists?":"Exists","Area":121.826,"Glacier Melt Record Date":null,"Latitude":59.047196,"Longitude":-137.077091,"Area Analysis Date":"2006-05-01","Temperature in F":46.77},{"Unnamed: 0":133,"Glacier Name":"Margerie Glacier","Glacier Exists?":"Exists","Area":121.826,"Glacier Melt Record Date":null,"Latitude":59.047196,"Longitude":-137.077091,"Area Analysis Date":"2006-05-01","Temperature in F":46.77},{"Unnamed: 0":134,"Glacier Name":"Grand Plateau Glacier","Glacier Exists?":"Exists","Area":383.689,"Glacier Melt Record Date":null,"Latitude":58.98445,"Longitude":-137.91017,"Area Analysis Date":"2007-04-01","Temperature in F":40.49},{"Unnamed: 0":135,"Glacier Name":"Grand Plateau Glacier","Glacier Exists?":"Exists","Area":383.689,"Glacier Melt Record Date":null,"Latitude":58.98445,"Longitude":-137.91017,"Area Analysis Date":"2007-04-01","Temperature in F":40.49},{"Unnamed: 0":136,"Glacier Name":"Melbern Glacier","Glacier Exists?":"Exists","Area":495.686,"Glacier Melt Record Date":null,"Latitude":59.06968,"Longitude":-137.04334,"Area Analysis Date":"2007-04-01","Temperature in F":40.49},{"Unnamed: 0":137,"Glacier Name":"Grand Plateau Glacier","Glacier Exists?":"Exists","Area":383.689,"Glacier Melt Record Date":null,"Latitude":58.98445,"Longitude":-137.91017,"Area Analysis Date":"2007-04-01","Temperature in F":40.49},{"Unnamed: 0":138,"Glacier Name":"Margerie Glacier","Glacier Exists?":"Exists","Area":121.826,"Glacier Melt Record Date":null,"Latitude":59.047196,"Longitude":-137.077091,"Area Analysis Date":"2006-05-01","Temperature in F":46.77},{"Unnamed: 0":139,"Glacier Name":"Margerie Glacier","Glacier Exists?":"Exists","Area":121.826,"Glacier Melt Record Date":null,"Latitude":59.047196,"Longitude":-137.077091,"Area Analysis Date":"2006-05-01","Temperature in F":46.77},{"Unnamed: 0":140,"Glacier Name":"Margerie Glacier","Glacier Exists?":"Exists","Area":121.826,"Glacier Melt Record Date":null,"Latitude":59.047196,"Longitude":-137.077091,"Area Analysis Date":"2006-05-01","Temperature in F":46.77},{"Unnamed: 0":141,"Glacier Name":"Melbern Glacier","Glacier Exists?":"Exists","Area":495.686,"Glacier Melt Record Date":null,"Latitude":59.06968,"Longitude":-137.04334,"Area Analysis Date":"2007-04-01","Temperature in F":40.49},{"Unnamed: 0":142,"Glacier Name":"Baird Glacier","Glacier Exists?":"Exists","Area":449.255,"Glacier Melt Record Date":null,"Latitude":57.121144,"Longitude":-132.819608,"Area Analysis Date":"2006-06-01","Temperature in F":50.77},{"Unnamed: 0":143,"Glacier Name":"Baird Glacier","Glacier Exists?":"Exists","Area":449.255,"Glacier Melt Record Date":null,"Latitude":57.121144,"Longitude":-132.819608,"Area Analysis Date":"2006-06-01","Temperature in F":50.77},{"Unnamed: 0":144,"Glacier Name":"Baird Glacier","Glacier Exists?":"Exists","Area":449.255,"Glacier Melt Record Date":null,"Latitude":57.121144,"Longitude":-132.819608,"Area Analysis Date":"2006-06-01","Temperature in F":50.77},{"Unnamed: 0":145,"Glacier Name":"Baird Glacier","Glacier Exists?":"Exists","Area":449.255,"Glacier Melt Record Date":null,"Latitude":57.121144,"Longitude":-132.819608,"Area Analysis Date":"2006-06-01","Temperature in F":50.77},{"Unnamed: 0":146,"Glacier Name":"Van Cleve Glacier","Glacier Exists?":"Exists","Area":40.0665,"Glacier Melt Record Date":null,"Latitude":60.695309,"Longitude":-144.244764,"Area Analysis Date":"2007-04-01","Temperature in F":40.49},{"Unnamed: 0":147,"Glacier Name":"Van Cleve Glacier","Glacier Exists?":"Exists","Area":40.0665,"Glacier Melt Record Date":null,"Latitude":60.695309,"Longitude":-144.244764,"Area Analysis Date":"2007-04-01","Temperature in F":40.49},{"Unnamed: 0":148,"Glacier Name":"Van Cleve Glacier","Glacier Exists?":"Exists","Area":40.0665,"Glacier Melt Record Date":null,"Latitude":60.695309,"Longitude":-144.244764,"Area Analysis Date":"2007-04-01","Temperature in F":40.49},{"Unnamed: 0":149,"Glacier Name":"Van Cleve Glacier","Glacier Exists?":"Exists","Area":40.0665,"Glacier Melt Record Date":null,"Latitude":60.695309,"Longitude":-144.244764,"Area Analysis Date":"2007-04-01","Temperature in F":40.49},{"Unnamed: 0":150,"Glacier Name":"Van Cleve Glacier","Glacier Exists?":"Exists","Area":40.0665,"Glacier Melt Record Date":null,"Latitude":60.695309,"Longitude":-144.244764,"Area Analysis Date":"2007-04-01","Temperature in F":40.49},{"Unnamed: 0":151,"Glacier Name":"Van Cleve Glacier","Glacier Exists?":"Exists","Area":40.0665,"Glacier Melt Record Date":null,"Latitude":60.695309,"Longitude":-144.244764,"Area Analysis Date":"2007-04-01","Temperature in F":40.49},{"Unnamed: 0":152,"Glacier Name":"Van Cleve Glacier","Glacier Exists?":"Exists","Area":40.0665,"Glacier Melt Record Date":null,"Latitude":60.695309,"Longitude":-144.244764,"Area Analysis Date":"2007-04-01","Temperature in F":40.49},{"Unnamed: 0":153,"Glacier Name":"Allen Glacier","Glacier Exists?":"Exists","Area":173.528,"Glacier Melt Record Date":null,"Latitude":60.755014,"Longitude":-144.8796,"Area Analysis Date":"2014-12-01","Temperature in F":52.53},{"Unnamed: 0":154,"Glacier Name":"Allen Glacier","Glacier Exists?":"Exists","Area":173.528,"Glacier Melt Record Date":null,"Latitude":60.755014,"Longitude":-144.8796,"Area Analysis Date":"2014-12-01","Temperature in F":52.53},{"Unnamed: 0":155,"Glacier Name":"Allen Glacier","Glacier Exists?":"Exists","Area":173.528,"Glacier Melt Record Date":null,"Latitude":60.755014,"Longitude":-144.8796,"Area Analysis Date":"2014-12-01","Temperature in F":52.53},{"Unnamed: 0":156,"Glacier Name":"Allen Glacier","Glacier Exists?":"Exists","Area":173.528,"Glacier Melt Record Date":null,"Latitude":60.755014,"Longitude":-144.8796,"Area Analysis Date":"2014-12-01","Temperature in F":52.53},{"Unnamed: 0":157,"Glacier Name":"Allen Glacier","Glacier Exists?":"Exists","Area":173.528,"Glacier Melt Record Date":null,"Latitude":60.755014,"Longitude":-144.8796,"Area Analysis Date":"2014-12-01","Temperature in F":52.53},{"Unnamed: 0":158,"Glacier Name":"Allen Glacier","Glacier Exists?":"Exists","Area":173.528,"Glacier Melt Record Date":null,"Latitude":60.755014,"Longitude":-144.8796,"Area Analysis Date":"2014-12-01","Temperature in F":52.53},{"Unnamed: 0":159,"Glacier Name":"Allen Glacier","Glacier Exists?":"Exists","Area":173.528,"Glacier Melt Record Date":null,"Latitude":60.755014,"Longitude":-144.8796,"Area Analysis Date":"2014-12-01","Temperature in F":52.53},{"Unnamed: 0":160,"Glacier Name":"Allen Glacier","Glacier Exists?":"Exists","Area":173.528,"Glacier Melt Record Date":null,"Latitude":60.755014,"Longitude":-144.8796,"Area Analysis Date":"2014-12-01","Temperature in F":52.53},{"Unnamed: 0":161,"Glacier Name":"Van Cleve Glacier","Glacier Exists?":"Exists","Area":40.0665,"Glacier Melt Record Date":null,"Latitude":60.695309,"Longitude":-144.244764,"Area Analysis Date":"2007-04-01","Temperature in F":40.49},{"Unnamed: 0":162,"Glacier Name":"Van Cleve Glacier","Glacier Exists?":"Exists","Area":40.0665,"Glacier Melt Record Date":null,"Latitude":60.695309,"Longitude":-144.244764,"Area Analysis Date":"2007-04-01","Temperature in F":40.49},{"Unnamed: 0":163,"Glacier Name":"Van Cleve Glacier","Glacier Exists?":"Exists","Area":40.0665,"Glacier Melt Record Date":null,"Latitude":60.695309,"Longitude":-144.244764,"Area Analysis Date":"2007-04-01","Temperature in F":40.49},{"Unnamed: 0":164,"Glacier Name":"Van Cleve Glacier","Glacier Exists?":"Exists","Area":40.0665,"Glacier Melt Record Date":null,"Latitude":60.695309,"Longitude":-144.244764,"Area Analysis Date":"2007-04-01","Temperature in F":40.49},{"Unnamed: 0":165,"Glacier Name":"Van Cleve Glacier","Glacier Exists?":"Exists","Area":40.0665,"Glacier Melt Record Date":null,"Latitude":60.695309,"Longitude":-144.244764,"Area Analysis Date":"2007-04-01","Temperature in F":40.49},{"Unnamed: 0":166,"Glacier Name":"Van Cleve Glacier","Glacier Exists?":"Exists","Area":40.0665,"Glacier Melt Record Date":null,"Latitude":60.695309,"Longitude":-144.244764,"Area Analysis Date":"2007-04-01","Temperature in F":40.49},{"Unnamed: 0":167,"Glacier Name":"Van Cleve Glacier","Glacier Exists?":"Exists","Area":40.0665,"Glacier Melt Record Date":null,"Latitude":60.695309,"Longitude":-144.244764,"Area Analysis Date":"2007-04-01","Temperature in F":40.49},{"Unnamed: 0":168,"Glacier Name":"Van Cleve Glacier","Glacier Exists?":"Exists","Area":40.0665,"Glacier Melt Record Date":null,"Latitude":60.695309,"Longitude":-144.244764,"Area Analysis Date":"2007-04-01","Temperature in F":40.49},{"Unnamed: 0":169,"Glacier Name":"Van Cleve Glacier","Glacier Exists?":"Exists","Area":40.0665,"Glacier Melt Record Date":null,"Latitude":60.695309,"Longitude":-144.244764,"Area Analysis Date":"2007-04-01","Temperature in F":40.49},{"Unnamed: 0":170,"Glacier Name":"Van Cleve Glacier","Glacier Exists?":"Exists","Area":40.0665,"Glacier Melt Record Date":null,"Latitude":60.695309,"Longitude":-144.244764,"Area Analysis Date":"2007-04-01","Temperature in F":40.49},{"Unnamed: 0":171,"Glacier Name":"Van Cleve Glacier","Glacier Exists?":"Exists","Area":40.0665,"Glacier Melt Record Date":null,"Latitude":60.695309,"Longitude":-144.244764,"Area Analysis Date":"2007-04-01","Temperature in F":40.49},{"Unnamed: 0":172,"Glacier Name":"Van Cleve Glacier","Glacier Exists?":"Exists","Area":40.0665,"Glacier Melt Record Date":null,"Latitude":60.695309,"Longitude":-144.244764,"Area Analysis Date":"2007-04-01","Temperature in F":40.49},{"Unnamed: 0":173,"Glacier Name":"Van Cleve Glacier","Glacier Exists?":"Exists","Area":40.0665,"Glacier Melt Record Date":null,"Latitude":60.695309,"Longitude":-144.244764,"Area Analysis Date":"2007-04-01","Temperature in F":40.49},{"Unnamed: 0":174,"Glacier Name":"Van Cleve Glacier","Glacier Exists?":"Exists","Area":40.0665,"Glacier Melt Record Date":null,"Latitude":60.695309,"Longitude":-144.244764,"Area Analysis Date":"2007-04-01","Temperature in F":40.49},{"Unnamed: 0":175,"Glacier Name":"Van Cleve Glacier","Glacier Exists?":"Exists","Area":40.0665,"Glacier Melt Record Date":null,"Latitude":60.695309,"Longitude":-144.244764,"Area Analysis Date":"2007-04-01","Temperature in F":40.49},{"Unnamed: 0":176,"Glacier Name":"Van Cleve Glacier","Glacier Exists?":"Exists","Area":40.0665,"Glacier Melt Record Date":null,"Latitude":60.695309,"Longitude":-144.244764,"Area Analysis Date":"2007-04-01","Temperature in F":40.49},{"Unnamed: 0":177,"Glacier Name":"Van Cleve Glacier","Glacier Exists?":"Exists","Area":40.0665,"Glacier Melt Record Date":null,"Latitude":60.695309,"Longitude":-144.244764,"Area Analysis Date":"2007-04-01","Temperature in F":40.49},{"Unnamed: 0":178,"Glacier Name":"Van Cleve Glacier","Glacier Exists?":"Exists","Area":40.0665,"Glacier Melt Record Date":null,"Latitude":60.695309,"Longitude":-144.244764,"Area Analysis Date":"2007-04-01","Temperature in F":40.49},{"Unnamed: 0":179,"Glacier Name":"Van Cleve Glacier","Glacier Exists?":"Exists","Area":40.0665,"Glacier Melt Record Date":null,"Latitude":60.695309,"Longitude":-144.244764,"Area Analysis Date":"2007-04-01","Temperature in F":40.49},{"Unnamed: 0":180,"Glacier Name":"Van Cleve Glacier","Glacier Exists?":"Exists","Area":40.0665,"Glacier Melt Record Date":null,"Latitude":60.695309,"Longitude":-144.244764,"Area Analysis Date":"2007-04-01","Temperature in F":40.49},{"Unnamed: 0":181,"Glacier Name":"Van Cleve Glacier","Glacier Exists?":"Exists","Area":40.0665,"Glacier Melt Record Date":null,"Latitude":60.695309,"Longitude":-144.244764,"Area Analysis Date":"2007-04-01","Temperature in F":40.49},{"Unnamed: 0":182,"Glacier Name":"Van Cleve Glacier","Glacier Exists?":"Exists","Area":40.0665,"Glacier Melt Record Date":null,"Latitude":60.695309,"Longitude":-144.244764,"Area Analysis Date":"2007-04-01","Temperature in F":40.49},{"Unnamed: 0":183,"Glacier Name":"Van Cleve Glacier","Glacier Exists?":"Exists","Area":40.0665,"Glacier Melt Record Date":null,"Latitude":60.695309,"Longitude":-144.244764,"Area Analysis Date":"2007-04-01","Temperature in F":40.49},{"Unnamed: 0":184,"Glacier Name":"Van Cleve Glacier","Glacier Exists?":"Exists","Area":40.0665,"Glacier Melt Record Date":null,"Latitude":60.695309,"Longitude":-144.244764,"Area Analysis Date":"2007-04-01","Temperature in F":40.49},{"Unnamed: 0":185,"Glacier Name":"Van Cleve Glacier","Glacier Exists?":"Exists","Area":40.0665,"Glacier Melt Record Date":null,"Latitude":60.695309,"Longitude":-144.244764,"Area Analysis Date":"2007-04-01","Temperature in F":40.49},{"Unnamed: 0":186,"Glacier Name":"Allen Glacier","Glacier Exists?":"Exists","Area":173.528,"Glacier Melt Record Date":null,"Latitude":60.755014,"Longitude":-144.8796,"Area Analysis Date":"2014-12-01","Temperature in F":52.53},{"Unnamed: 0":187,"Glacier Name":"Allen Glacier","Glacier Exists?":"Exists","Area":173.528,"Glacier Melt Record Date":null,"Latitude":60.755014,"Longitude":-144.8796,"Area Analysis Date":"2014-12-01","Temperature in F":52.53},{"Unnamed: 0":188,"Glacier Name":"Allen Glacier","Glacier Exists?":"Exists","Area":173.528,"Glacier Melt Record Date":null,"Latitude":60.755014,"Longitude":-144.8796,"Area Analysis Date":"2014-12-01","Temperature in F":52.53},{"Unnamed: 0":189,"Glacier Name":"Allen Glacier","Glacier Exists?":"Exists","Area":173.528,"Glacier Melt Record Date":null,"Latitude":60.755014,"Longitude":-144.8796,"Area Analysis Date":"2014-12-01","Temperature in F":52.53},{"Unnamed: 0":190,"Glacier Name":"Van Cleve Glacier","Glacier Exists?":"Exists","Area":40.0665,"Glacier Melt Record Date":null,"Latitude":60.695309,"Longitude":-144.244764,"Area Analysis Date":"2007-04-01","Temperature in F":40.49},{"Unnamed: 0":191,"Glacier Name":"Van Cleve Glacier","Glacier Exists?":"Exists","Area":40.0665,"Glacier Melt Record Date":null,"Latitude":60.695309,"Longitude":-144.244764,"Area Analysis Date":"2007-04-01","Temperature in F":40.49},{"Unnamed: 0":192,"Glacier Name":"Van Cleve Glacier","Glacier Exists?":"Exists","Area":40.0665,"Glacier Melt Record Date":null,"Latitude":60.695309,"Longitude":-144.244764,"Area Analysis Date":"2007-04-01","Temperature in F":40.49},{"Unnamed: 0":193,"Glacier Name":"Van Cleve Glacier","Glacier Exists?":"Exists","Area":40.0665,"Glacier Melt Record Date":null,"Latitude":60.695309,"Longitude":-144.244764,"Area Analysis Date":"2007-04-01","Temperature in F":40.49},{"Unnamed: 0":194,"Glacier Name":"Van Cleve Glacier","Glacier Exists?":"Exists","Area":40.0665,"Glacier Melt Record Date":null,"Latitude":60.695309,"Longitude":-144.244764,"Area Analysis Date":"2007-04-01","Temperature in F":40.49},{"Unnamed: 0":195,"Glacier Name":"Van Cleve Glacier","Glacier Exists?":"Exists","Area":40.0665,"Glacier Melt Record Date":null,"Latitude":60.695309,"Longitude":-144.244764,"Area Analysis Date":"2007-04-01","Temperature in F":40.49},{"Unnamed: 0":196,"Glacier Name":"Van Cleve Glacier","Glacier Exists?":"Exists","Area":40.0665,"Glacier Melt Record Date":null,"Latitude":60.695309,"Longitude":-144.244764,"Area Analysis Date":"2007-04-01","Temperature in F":40.49},{"Unnamed: 0":197,"Glacier Name":"Van Cleve Glacier","Glacier Exists?":"Exists","Area":40.0665,"Glacier Melt Record Date":null,"Latitude":60.695309,"Longitude":-144.244764,"Area Analysis Date":"2007-04-01","Temperature in F":40.49},{"Unnamed: 0":198,"Glacier Name":"Van Cleve Glacier","Glacier Exists?":"Exists","Area":40.0665,"Glacier Melt Record Date":null,"Latitude":60.695309,"Longitude":-144.244764,"Area Analysis Date":"2007-04-01","Temperature in F":40.49},{"Unnamed: 0":199,"Glacier Name":"Van Cleve Glacier","Glacier Exists?":"Exists","Area":40.0665,"Glacier Melt Record Date":null,"Latitude":60.695309,"Longitude":-144.244764,"Area Analysis Date":"2007-04-01","Temperature in F":40.49},{"Unnamed: 0":200,"Glacier Name":"Van Cleve Glacier","Glacier Exists?":"Exists","Area":40.0665,"Glacier Melt Record Date":null,"Latitude":60.695309,"Longitude":-144.244764,"Area Analysis Date":"2007-04-01","Temperature in F":40.49},{"Unnamed: 0":201,"Glacier Name":"Van Cleve Glacier","Glacier Exists?":"Exists","Area":40.0665,"Glacier Melt Record Date":null,"Latitude":60.695309,"Longitude":-144.244764,"Area Analysis Date":"2007-04-01","Temperature in F":40.49},{"Unnamed: 0":202,"Glacier Name":"Van Cleve Glacier","Glacier Exists?":"Exists","Area":40.0665,"Glacier Melt Record Date":null,"Latitude":60.695309,"Longitude":-144.244764,"Area Analysis Date":"2007-04-01","Temperature in F":40.49},{"Unnamed: 0":203,"Glacier Name":"Van Cleve Glacier","Glacier Exists?":"Exists","Area":40.0665,"Glacier Melt Record Date":null,"Latitude":60.695309,"Longitude":-144.244764,"Area Analysis Date":"2007-04-01","Temperature in F":40.49},{"Unnamed: 0":204,"Glacier Name":"Van Cleve Glacier","Glacier Exists?":"Exists","Area":40.0665,"Glacier Melt Record Date":null,"Latitude":60.695309,"Longitude":-144.244764,"Area Analysis Date":"2007-04-01","Temperature in F":40.49},{"Unnamed: 0":205,"Glacier Name":"Van Cleve Glacier","Glacier Exists?":"Exists","Area":40.0665,"Glacier Melt Record Date":null,"Latitude":60.695309,"Longitude":-144.244764,"Area Analysis Date":"2007-04-01","Temperature in F":40.49},{"Unnamed: 0":206,"Glacier Name":"Van Cleve Glacier","Glacier Exists?":"Exists","Area":40.0665,"Glacier Melt Record Date":null,"Latitude":60.695309,"Longitude":-144.244764,"Area Analysis Date":"2007-04-01","Temperature in F":40.49},{"Unnamed: 0":207,"Glacier Name":"Van Cleve Glacier","Glacier Exists?":"Exists","Area":40.0665,"Glacier Melt Record Date":null,"Latitude":60.695309,"Longitude":-144.244764,"Area Analysis Date":"2007-04-01","Temperature in F":40.49},{"Unnamed: 0":208,"Glacier Name":"Van Cleve Glacier","Glacier Exists?":"Exists","Area":40.0665,"Glacier Melt Record Date":null,"Latitude":60.695309,"Longitude":-144.244764,"Area Analysis Date":"2007-04-01","Temperature in F":40.49},{"Unnamed: 0":209,"Glacier Name":"Van Cleve Glacier","Glacier Exists?":"Exists","Area":40.0665,"Glacier Melt Record Date":null,"Latitude":60.695309,"Longitude":-144.244764,"Area Analysis Date":"2007-04-01","Temperature in F":40.49},{"Unnamed: 0":210,"Glacier Name":"Van Cleve Glacier","Glacier Exists?":"Exists","Area":40.0665,"Glacier Melt Record Date":null,"Latitude":60.695309,"Longitude":-144.244764,"Area Analysis Date":"2007-04-01","Temperature in F":40.49},{"Unnamed: 0":211,"Glacier Name":"Van Cleve Glacier","Glacier Exists?":"Exists","Area":40.0665,"Glacier Melt Record Date":null,"Latitude":60.695309,"Longitude":-144.244764,"Area Analysis Date":"2007-04-01","Temperature in F":40.49},{"Unnamed: 0":212,"Glacier Name":"Van Cleve Glacier","Glacier Exists?":"Exists","Area":40.0665,"Glacier Melt Record Date":null,"Latitude":60.695309,"Longitude":-144.244764,"Area Analysis Date":"2007-04-01","Temperature in F":40.49},{"Unnamed: 0":213,"Glacier Name":"Van Cleve Glacier","Glacier Exists?":"Exists","Area":40.0665,"Glacier Melt Record Date":null,"Latitude":60.695309,"Longitude":-144.244764,"Area Analysis Date":"2007-04-01","Temperature in F":40.49},{"Unnamed: 0":214,"Glacier Name":"Van Cleve Glacier","Glacier Exists?":"Exists","Area":40.0665,"Glacier Melt Record Date":null,"Latitude":60.695309,"Longitude":-144.244764,"Area Analysis Date":"2007-04-01","Temperature in F":40.49},{"Unnamed: 0":215,"Glacier Name":"Van Cleve Glacier","Glacier Exists?":"Exists","Area":40.0665,"Glacier Melt Record Date":null,"Latitude":60.695309,"Longitude":-144.244764,"Area Analysis Date":"2007-04-01","Temperature in F":40.49},{"Unnamed: 0":216,"Glacier Name":"Van Cleve Glacier","Glacier Exists?":"Exists","Area":40.0665,"Glacier Melt Record Date":null,"Latitude":60.695309,"Longitude":-144.244764,"Area Analysis Date":"2007-04-01","Temperature in F":40.49},{"Unnamed: 0":217,"Glacier Name":"Van Cleve Glacier","Glacier Exists?":"Exists","Area":40.0665,"Glacier Melt Record Date":null,"Latitude":60.695309,"Longitude":-144.244764,"Area Analysis Date":"2007-04-01","Temperature in F":40.49},{"Unnamed: 0":218,"Glacier Name":"Van Cleve Glacier","Glacier Exists?":"Exists","Area":40.0665,"Glacier Melt Record Date":null,"Latitude":60.695309,"Longitude":-144.244764,"Area Analysis Date":"2007-04-01","Temperature in F":40.49},{"Unnamed: 0":219,"Glacier Name":"Van Cleve Glacier","Glacier Exists?":"Exists","Area":40.0665,"Glacier Melt Record Date":null,"Latitude":60.695309,"Longitude":-144.244764,"Area Analysis Date":"2007-04-01","Temperature in F":40.49},{"Unnamed: 0":220,"Glacier Name":"Van Cleve Glacier","Glacier Exists?":"Exists","Area":40.0665,"Glacier Melt Record Date":null,"Latitude":60.695309,"Longitude":-144.244764,"Area Analysis Date":"2007-04-01","Temperature in F":40.49},{"Unnamed: 0":221,"Glacier Name":"Van Cleve Glacier","Glacier Exists?":"Exists","Area":40.0665,"Glacier Melt Record Date":null,"Latitude":60.695309,"Longitude":-144.244764,"Area Analysis Date":"2007-04-01","Temperature in F":40.49},{"Unnamed: 0":222,"Glacier Name":"Van Cleve Glacier","Glacier Exists?":"Exists","Area":40.0665,"Glacier Melt Record Date":null,"Latitude":60.695309,"Longitude":-144.244764,"Area Analysis Date":"2007-04-01","Temperature in F":40.49},{"Unnamed: 0":223,"Glacier Name":"Van Cleve Glacier","Glacier Exists?":"Exists","Area":40.0665,"Glacier Melt Record Date":null,"Latitude":60.695309,"Longitude":-144.244764,"Area Analysis Date":"2007-04-01","Temperature in F":40.49},{"Unnamed: 0":224,"Glacier Name":"Van Cleve Glacier","Glacier Exists?":"Exists","Area":40.0665,"Glacier Melt Record Date":null,"Latitude":60.695309,"Longitude":-144.244764,"Area Analysis Date":"2007-04-01","Temperature in F":40.49},{"Unnamed: 0":225,"Glacier Name":"Van Cleve Glacier","Glacier Exists?":"Exists","Area":40.0665,"Glacier Melt Record Date":null,"Latitude":60.695309,"Longitude":-144.244764,"Area Analysis Date":"2007-04-01","Temperature in F":40.49},{"Unnamed: 0":226,"Glacier Name":"Van Cleve Glacier","Glacier Exists?":"Exists","Area":40.0665,"Glacier Melt Record Date":null,"Latitude":60.695309,"Longitude":-144.244764,"Area Analysis Date":"2007-04-01","Temperature in F":40.49},{"Unnamed: 0":227,"Glacier Name":"Van Cleve Glacier","Glacier Exists?":"Exists","Area":40.0665,"Glacier Melt Record Date":null,"Latitude":60.695309,"Longitude":-144.244764,"Area Analysis Date":"2007-04-01","Temperature in F":40.49},{"Unnamed: 0":228,"Glacier Name":"Van Cleve Glacier","Glacier Exists?":"Exists","Area":40.0665,"Glacier Melt Record Date":null,"Latitude":60.695309,"Longitude":-144.244764,"Area Analysis Date":"2007-04-01","Temperature in F":40.49},{"Unnamed: 0":229,"Glacier Name":"Van Cleve Glacier","Glacier Exists?":"Exists","Area":40.0665,"Glacier Melt Record Date":null,"Latitude":60.695309,"Longitude":-144.244764,"Area Analysis Date":"2007-04-01","Temperature in F":40.49},{"Unnamed: 0":230,"Glacier Name":"Van Cleve Glacier","Glacier Exists?":"Exists","Area":40.0665,"Glacier Melt Record Date":null,"Latitude":60.695309,"Longitude":-144.244764,"Area Analysis Date":"2007-04-01","Temperature in F":40.49},{"Unnamed: 0":231,"Glacier Name":"Van Cleve Glacier","Glacier Exists?":"Exists","Area":40.0665,"Glacier Melt Record Date":null,"Latitude":60.695309,"Longitude":-144.244764,"Area Analysis Date":"2007-04-01","Temperature in F":40.49},{"Unnamed: 0":232,"Glacier Name":"Van Cleve Glacier","Glacier Exists?":"Exists","Area":40.0665,"Glacier Melt Record Date":null,"Latitude":60.695309,"Longitude":-144.244764,"Area Analysis Date":"2007-04-01","Temperature in F":40.49},{"Unnamed: 0":233,"Glacier Name":"Van Cleve Glacier","Glacier Exists?":"Exists","Area":40.0665,"Glacier Melt Record Date":null,"Latitude":60.695309,"Longitude":-144.244764,"Area Analysis Date":"2007-04-01","Temperature in F":40.49},{"Unnamed: 0":234,"Glacier Name":"Allen Glacier","Glacier Exists?":"Exists","Area":173.528,"Glacier Melt Record Date":null,"Latitude":60.755014,"Longitude":-144.8796,"Area Analysis Date":"2014-12-01","Temperature in F":52.53},{"Unnamed: 0":235,"Glacier Name":"Allen Glacier","Glacier Exists?":"Exists","Area":173.528,"Glacier Melt Record Date":null,"Latitude":60.755014,"Longitude":-144.8796,"Area Analysis Date":"2014-12-01","Temperature in F":52.53},{"Unnamed: 0":236,"Glacier Name":"Allen Glacier","Glacier Exists?":"Exists","Area":173.528,"Glacier Melt Record Date":null,"Latitude":60.755014,"Longitude":-144.8796,"Area Analysis Date":"2014-12-01","Temperature in F":52.53},{"Unnamed: 0":237,"Glacier Name":"Allen Glacier","Glacier Exists?":"Exists","Area":173.528,"Glacier Melt Record Date":null,"Latitude":60.755014,"Longitude":-144.8796,"Area Analysis Date":"2014-12-01","Temperature in F":52.53},{"Unnamed: 0":238,"Glacier Name":"Allen Glacier","Glacier Exists?":"Exists","Area":173.528,"Glacier Melt Record Date":null,"Latitude":60.755014,"Longitude":-144.8796,"Area Analysis Date":"2014-12-01","Temperature in F":52.53},{"Unnamed: 0":239,"Glacier Name":"Allen Glacier","Glacier Exists?":"Exists","Area":173.528,"Glacier Melt Record Date":null,"Latitude":60.755014,"Longitude":-144.8796,"Area Analysis Date":"2014-12-01","Temperature in F":52.53},{"Unnamed: 0":240,"Glacier Name":"Allen Glacier","Glacier Exists?":"Exists","Area":173.528,"Glacier Melt Record Date":null,"Latitude":60.755014,"Longitude":-144.8796,"Area Analysis Date":"2014-12-01","Temperature in F":52.53},{"Unnamed: 0":241,"Glacier Name":"Allen Glacier","Glacier Exists?":"Exists","Area":173.528,"Glacier Melt Record Date":null,"Latitude":60.755014,"Longitude":-144.8796,"Area Analysis Date":"2014-12-01","Temperature in F":52.53},{"Unnamed: 0":242,"Glacier Name":"Allen Glacier","Glacier Exists?":"Exists","Area":173.528,"Glacier Melt Record Date":null,"Latitude":60.755014,"Longitude":-144.8796,"Area Analysis Date":"2014-12-01","Temperature in F":52.53},{"Unnamed: 0":243,"Glacier Name":"Allen Glacier","Glacier Exists?":"Exists","Area":173.528,"Glacier Melt Record Date":null,"Latitude":60.755014,"Longitude":-144.8796,"Area Analysis Date":"2014-12-01","Temperature in F":52.53},{"Unnamed: 0":244,"Glacier Name":"Allen Glacier","Glacier Exists?":"Exists","Area":173.528,"Glacier Melt Record Date":null,"Latitude":60.755014,"Longitude":-144.8796,"Area Analysis Date":"2014-12-01","Temperature in F":52.53},{"Unnamed: 0":245,"Glacier Name":"Allen Glacier","Glacier Exists?":"Exists","Area":173.528,"Glacier Melt Record Date":null,"Latitude":60.755014,"Longitude":-144.8796,"Area Analysis Date":"2014-12-01","Temperature in F":52.53},{"Unnamed: 0":246,"Glacier Name":"Allen Glacier","Glacier Exists?":"Exists","Area":173.528,"Glacier Melt Record Date":null,"Latitude":60.755014,"Longitude":-144.8796,"Area Analysis Date":"2014-12-01","Temperature in F":52.53},{"Unnamed: 0":247,"Glacier Name":"Allen Glacier","Glacier Exists?":"Exists","Area":173.528,"Glacier Melt Record Date":null,"Latitude":60.755014,"Longitude":-144.8796,"Area Analysis Date":"2014-12-01","Temperature in F":52.53},{"Unnamed: 0":248,"Glacier Name":"Allen Glacier","Glacier Exists?":"Exists","Area":173.528,"Glacier Melt Record Date":null,"Latitude":60.755014,"Longitude":-144.8796,"Area Analysis Date":"2014-12-01","Temperature in F":52.53},{"Unnamed: 0":249,"Glacier Name":"Allen Glacier","Glacier Exists?":"Exists","Area":173.528,"Glacier Melt Record Date":null,"Latitude":60.755014,"Longitude":-144.8796,"Area Analysis Date":"2014-12-01","Temperature in F":52.53},{"Unnamed: 0":250,"Glacier Name":"Allen Glacier","Glacier Exists?":"Exists","Area":173.528,"Glacier Melt Record Date":null,"Latitude":60.755014,"Longitude":-144.8796,"Area Analysis Date":"2014-12-01","Temperature in F":52.53},{"Unnamed: 0":251,"Glacier Name":"Allen Glacier","Glacier Exists?":"Exists","Area":173.528,"Glacier Melt Record Date":null,"Latitude":60.755014,"Longitude":-144.8796,"Area Analysis Date":"2014-12-01","Temperature in F":52.53},{"Unnamed: 0":252,"Glacier Name":"Allen Glacier","Glacier Exists?":"Exists","Area":173.528,"Glacier Melt Record Date":null,"Latitude":60.755014,"Longitude":-144.8796,"Area Analysis Date":"2014-12-01","Temperature in F":52.53},{"Unnamed: 0":253,"Glacier Name":"Allen Glacier","Glacier Exists?":"Exists","Area":173.528,"Glacier Melt Record Date":null,"Latitude":60.755014,"Longitude":-144.8796,"Area Analysis Date":"2014-12-01","Temperature in F":52.53},{"Unnamed: 0":254,"Glacier Name":"Allen Glacier","Glacier Exists?":"Exists","Area":173.528,"Glacier Melt Record Date":null,"Latitude":60.755014,"Longitude":-144.8796,"Area Analysis Date":"2014-12-01","Temperature in F":52.53},{"Unnamed: 0":255,"Glacier Name":"Allen Glacier","Glacier Exists?":"Exists","Area":173.528,"Glacier Melt Record Date":null,"Latitude":60.755014,"Longitude":-144.8796,"Area Analysis Date":"2014-12-01","Temperature in F":52.53},{"Unnamed: 0":256,"Glacier Name":"Allen Glacier","Glacier Exists?":"Exists","Area":173.528,"Glacier Melt Record Date":null,"Latitude":60.755014,"Longitude":-144.8796,"Area Analysis Date":"2014-12-01","Temperature in F":52.53},{"Unnamed: 0":257,"Glacier Name":"Allen Glacier","Glacier Exists?":"Exists","Area":173.528,"Glacier Melt Record Date":null,"Latitude":60.755014,"Longitude":-144.8796,"Area Analysis Date":"2014-12-01","Temperature in F":52.53},{"Unnamed: 0":258,"Glacier Name":"Allen Glacier","Glacier Exists?":"Exists","Area":173.528,"Glacier Melt Record Date":null,"Latitude":60.755014,"Longitude":-144.8796,"Area Analysis Date":"2014-12-01","Temperature in F":52.53},{"Unnamed: 0":259,"Glacier Name":"Allen Glacier","Glacier Exists?":"Exists","Area":173.528,"Glacier Melt Record Date":null,"Latitude":60.755014,"Longitude":-144.8796,"Area Analysis Date":"2014-12-01","Temperature in F":52.53},{"Unnamed: 0":260,"Glacier Name":"Allen Glacier","Glacier Exists?":"Exists","Area":173.528,"Glacier Melt Record Date":null,"Latitude":60.755014,"Longitude":-144.8796,"Area Analysis Date":"2014-12-01","Temperature in F":52.53},{"Unnamed: 0":261,"Glacier Name":"Allen Glacier","Glacier Exists?":"Exists","Area":173.528,"Glacier Melt Record Date":null,"Latitude":60.755014,"Longitude":-144.8796,"Area Analysis Date":"2014-12-01","Temperature in F":52.53},{"Unnamed: 0":262,"Glacier Name":"Allen Glacier","Glacier Exists?":"Exists","Area":173.528,"Glacier Melt Record Date":null,"Latitude":60.755014,"Longitude":-144.8796,"Area Analysis Date":"2014-12-01","Temperature in F":52.53},{"Unnamed: 0":263,"Glacier Name":"Allen Glacier","Glacier Exists?":"Exists","Area":173.528,"Glacier Melt Record Date":null,"Latitude":60.755014,"Longitude":-144.8796,"Area Analysis Date":"2014-12-01","Temperature in F":52.53},{"Unnamed: 0":264,"Glacier Name":"Allen Glacier","Glacier Exists?":"Exists","Area":173.528,"Glacier Melt Record Date":null,"Latitude":60.755014,"Longitude":-144.8796,"Area Analysis Date":"2014-12-01","Temperature in F":52.53},{"Unnamed: 0":265,"Glacier Name":"Allen Glacier","Glacier Exists?":"Exists","Area":173.528,"Glacier Melt Record Date":null,"Latitude":60.755014,"Longitude":-144.8796,"Area Analysis Date":"2014-12-01","Temperature in F":52.53},{"Unnamed: 0":266,"Glacier Name":"Allen Glacier","Glacier Exists?":"Exists","Area":173.528,"Glacier Melt Record Date":null,"Latitude":60.755014,"Longitude":-144.8796,"Area Analysis Date":"2014-12-01","Temperature in F":52.53},{"Unnamed: 0":267,"Glacier Name":"Allen Glacier","Glacier Exists?":"Exists","Area":173.528,"Glacier Melt Record Date":null,"Latitude":60.755014,"Longitude":-144.8796,"Area Analysis Date":"2014-12-01","Temperature in F":52.53},{"Unnamed: 0":268,"Glacier Name":"Allen Glacier","Glacier Exists?":"Exists","Area":173.528,"Glacier Melt Record Date":null,"Latitude":60.755014,"Longitude":-144.8796,"Area Analysis Date":"2014-12-01","Temperature in F":52.53},{"Unnamed: 0":269,"Glacier Name":"Allen Glacier","Glacier Exists?":"Exists","Area":173.528,"Glacier Melt Record Date":null,"Latitude":60.755014,"Longitude":-144.8796,"Area Analysis Date":"2014-12-01","Temperature in F":52.53},{"Unnamed: 0":270,"Glacier Name":"Allen Glacier","Glacier Exists?":"Exists","Area":173.528,"Glacier Melt Record Date":null,"Latitude":60.755014,"Longitude":-144.8796,"Area Analysis Date":"2014-12-01","Temperature in F":52.53},{"Unnamed: 0":271,"Glacier Name":"Allen Glacier","Glacier Exists?":"Exists","Area":173.528,"Glacier Melt Record Date":null,"Latitude":60.755014,"Longitude":-144.8796,"Area Analysis Date":"2014-12-01","Temperature in F":52.53},{"Unnamed: 0":272,"Glacier Name":"Allen Glacier","Glacier Exists?":"Exists","Area":173.528,"Glacier Melt Record Date":null,"Latitude":60.755014,"Longitude":-144.8796,"Area Analysis Date":"2014-12-01","Temperature in F":52.53},{"Unnamed: 0":273,"Glacier Name":"Allen Glacier","Glacier Exists?":"Exists","Area":173.528,"Glacier Melt Record Date":null,"Latitude":60.755014,"Longitude":-144.8796,"Area Analysis Date":"2014-12-01","Temperature in F":52.53},{"Unnamed: 0":274,"Glacier Name":"Allen Glacier","Glacier Exists?":"Exists","Area":173.528,"Glacier Melt Record Date":null,"Latitude":60.755014,"Longitude":-144.8796,"Area Analysis Date":"2014-12-01","Temperature in F":52.53},{"Unnamed: 0":275,"Glacier Name":"Allen Glacier","Glacier Exists?":"Exists","Area":173.528,"Glacier Melt Record Date":null,"Latitude":60.755014,"Longitude":-144.8796,"Area Analysis Date":"2014-12-01","Temperature in F":52.53},{"Unnamed: 0":276,"Glacier Name":"Allen Glacier","Glacier Exists?":"Exists","Area":173.528,"Glacier Melt Record Date":null,"Latitude":60.755014,"Longitude":-144.8796,"Area Analysis Date":"2014-12-01","Temperature in F":52.53},{"Unnamed: 0":277,"Glacier Name":"Allen Glacier","Glacier Exists?":"Exists","Area":173.528,"Glacier Melt Record Date":null,"Latitude":60.755014,"Longitude":-144.8796,"Area Analysis Date":"2014-12-01","Temperature in F":52.53},{"Unnamed: 0":278,"Glacier Name":"Allen Glacier","Glacier Exists?":"Exists","Area":173.528,"Glacier Melt Record Date":null,"Latitude":60.755014,"Longitude":-144.8796,"Area Analysis Date":"2014-12-01","Temperature in F":52.53},{"Unnamed: 0":279,"Glacier Name":"Allen Glacier","Glacier Exists?":"Exists","Area":173.528,"Glacier Melt Record Date":null,"Latitude":60.755014,"Longitude":-144.8796,"Area Analysis Date":"2014-12-01","Temperature in F":52.53},{"Unnamed: 0":280,"Glacier Name":"Allen Glacier","Glacier Exists?":"Exists","Area":173.528,"Glacier Melt Record Date":null,"Latitude":60.755014,"Longitude":-144.8796,"Area Analysis Date":"2014-12-01","Temperature in F":52.53},{"Unnamed: 0":281,"Glacier Name":"Allen Glacier","Glacier Exists?":"Exists","Area":173.528,"Glacier Melt Record Date":null,"Latitude":60.755014,"Longitude":-144.8796,"Area Analysis Date":"2014-12-01","Temperature in F":52.53},{"Unnamed: 0":282,"Glacier Name":"Allen Glacier","Glacier Exists?":"Exists","Area":173.528,"Glacier Melt Record Date":null,"Latitude":60.755014,"Longitude":-144.8796,"Area Analysis Date":"2014-12-01","Temperature in F":52.53},{"Unnamed: 0":283,"Glacier Name":"Allen Glacier","Glacier Exists?":"Exists","Area":173.528,"Glacier Melt Record Date":null,"Latitude":60.755014,"Longitude":-144.8796,"Area Analysis Date":"2014-12-01","Temperature in F":52.53},{"Unnamed: 0":284,"Glacier Name":"Allen Glacier","Glacier Exists?":"Exists","Area":173.528,"Glacier Melt Record Date":null,"Latitude":60.755014,"Longitude":-144.8796,"Area Analysis Date":"2014-12-01","Temperature in F":52.53},{"Unnamed: 0":285,"Glacier Name":"Allen Glacier","Glacier Exists?":"Exists","Area":173.528,"Glacier Melt Record Date":null,"Latitude":60.755014,"Longitude":-144.8796,"Area Analysis Date":"2014-12-01","Temperature in F":52.53},{"Unnamed: 0":286,"Glacier Name":"Allen Glacier","Glacier Exists?":"Exists","Area":173.528,"Glacier Melt Record Date":null,"Latitude":60.755014,"Longitude":-144.8796,"Area Analysis Date":"2014-12-01","Temperature in F":52.53},{"Unnamed: 0":287,"Glacier Name":"Allen Glacier","Glacier Exists?":"Exists","Area":173.528,"Glacier Melt Record Date":null,"Latitude":60.755014,"Longitude":-144.8796,"Area Analysis Date":"2014-12-01","Temperature in F":52.53},{"Unnamed: 0":288,"Glacier Name":"Allen Glacier","Glacier Exists?":"Exists","Area":173.528,"Glacier Melt Record Date":null,"Latitude":60.755014,"Longitude":-144.8796,"Area Analysis Date":"2014-12-01","Temperature in F":52.53},{"Unnamed: 0":289,"Glacier Name":"Allen Glacier","Glacier Exists?":"Exists","Area":173.528,"Glacier Melt Record Date":null,"Latitude":60.755014,"Longitude":-144.8796,"Area Analysis Date":"2014-12-01","Temperature in F":52.53},{"Unnamed: 0":290,"Glacier Name":"Allen Glacier","Glacier Exists?":"Exists","Area":173.528,"Glacier Melt Record Date":null,"Latitude":60.755014,"Longitude":-144.8796,"Area Analysis Date":"2014-12-01","Temperature in F":52.53},{"Unnamed: 0":291,"Glacier Name":"Allen Glacier","Glacier Exists?":"Exists","Area":173.528,"Glacier Melt Record Date":null,"Latitude":60.755014,"Longitude":-144.8796,"Area Analysis Date":"2014-12-01","Temperature in F":52.53},{"Unnamed: 0":292,"Glacier Name":"Allen Glacier","Glacier Exists?":"Exists","Area":173.528,"Glacier Melt Record Date":null,"Latitude":60.755014,"Longitude":-144.8796,"Area Analysis Date":"2014-12-01","Temperature in F":52.53},{"Unnamed: 0":293,"Glacier Name":"Allen Glacier","Glacier Exists?":"Exists","Area":173.528,"Glacier Melt Record Date":null,"Latitude":60.755014,"Longitude":-144.8796,"Area Analysis Date":"2014-12-01","Temperature in F":52.53},{"Unnamed: 0":294,"Glacier Name":"Allen Glacier","Glacier Exists?":"Exists","Area":173.528,"Glacier Melt Record Date":null,"Latitude":60.755014,"Longitude":-144.8796,"Area Analysis Date":"2014-12-01","Temperature in F":52.53},{"Unnamed: 0":295,"Glacier Name":"Allen Glacier","Glacier Exists?":"Exists","Area":173.528,"Glacier Melt Record Date":null,"Latitude":60.755014,"Longitude":-144.8796,"Area Analysis Date":"2014-12-01","Temperature in F":52.53},{"Unnamed: 0":296,"Glacier Name":"Allen Glacier","Glacier Exists?":"Exists","Area":173.528,"Glacier Melt Record Date":null,"Latitude":60.755014,"Longitude":-144.8796,"Area Analysis Date":"2014-12-01","Temperature in F":52.53},{"Unnamed: 0":297,"Glacier Name":"Allen Glacier","Glacier Exists?":"Exists","Area":173.528,"Glacier Melt Record Date":null,"Latitude":60.755014,"Longitude":-144.8796,"Area Analysis Date":"2014-12-01","Temperature in F":52.53},{"Unnamed: 0":298,"Glacier Name":"Allen Glacier","Glacier Exists?":"Exists","Area":173.528,"Glacier Melt Record Date":null,"Latitude":60.755014,"Longitude":-144.8796,"Area Analysis Date":"2014-12-01","Temperature in F":52.53},{"Unnamed: 0":299,"Glacier Name":"Allen Glacier","Glacier Exists?":"Exists","Area":173.528,"Glacier Melt Record Date":null,"Latitude":60.755014,"Longitude":-144.8796,"Area Analysis Date":"2014-12-01","Temperature in F":52.53},{"Unnamed: 0":300,"Glacier Name":"Allen Glacier","Glacier Exists?":"Exists","Area":173.528,"Glacier Melt Record Date":null,"Latitude":60.755014,"Longitude":-144.8796,"Area Analysis Date":"2014-12-01","Temperature in F":52.53},{"Unnamed: 0":301,"Glacier Name":"Allen Glacier","Glacier Exists?":"Exists","Area":173.528,"Glacier Melt Record Date":null,"Latitude":60.755014,"Longitude":-144.8796,"Area Analysis Date":"2014-12-01","Temperature in F":52.53},{"Unnamed: 0":302,"Glacier Name":"Allen Glacier","Glacier Exists?":"Exists","Area":173.528,"Glacier Melt Record Date":null,"Latitude":60.755014,"Longitude":-144.8796,"Area Analysis Date":"2014-12-01","Temperature in F":52.53},{"Unnamed: 0":303,"Glacier Name":"Allen Glacier","Glacier Exists?":"Exists","Area":173.528,"Glacier Melt Record Date":null,"Latitude":60.755014,"Longitude":-144.8796,"Area Analysis Date":"2014-12-01","Temperature in F":52.53},{"Unnamed: 0":304,"Glacier Name":"Allen Glacier","Glacier Exists?":"Exists","Area":173.528,"Glacier Melt Record Date":null,"Latitude":60.755014,"Longitude":-144.8796,"Area Analysis Date":"2014-12-01","Temperature in F":52.53},{"Unnamed: 0":305,"Glacier Name":"Allen Glacier","Glacier Exists?":"Exists","Area":173.528,"Glacier Melt Record Date":null,"Latitude":60.755014,"Longitude":-144.8796,"Area Analysis Date":"2014-12-01","Temperature in F":52.53},{"Unnamed: 0":306,"Glacier Name":"Allen Glacier","Glacier Exists?":"Exists","Area":173.528,"Glacier Melt Record Date":null,"Latitude":60.755014,"Longitude":-144.8796,"Area Analysis Date":"2014-12-01","Temperature in F":52.53},{"Unnamed: 0":307,"Glacier Name":"Van Cleve Glacier","Glacier Exists?":"Exists","Area":40.0665,"Glacier Melt Record Date":null,"Latitude":60.695309,"Longitude":-144.244764,"Area Analysis Date":"2007-04-01","Temperature in F":40.49},{"Unnamed: 0":308,"Glacier Name":"Van Cleve Glacier","Glacier Exists?":"Exists","Area":40.0665,"Glacier Melt Record Date":null,"Latitude":60.695309,"Longitude":-144.244764,"Area Analysis Date":"2007-04-01","Temperature in F":40.49},{"Unnamed: 0":309,"Glacier Name":"Van Cleve Glacier","Glacier Exists?":"Exists","Area":40.0665,"Glacier Melt Record Date":null,"Latitude":60.695309,"Longitude":-144.244764,"Area Analysis Date":"2007-04-01","Temperature in F":40.49},{"Unnamed: 0":310,"Glacier Name":"Allen Glacier","Glacier Exists?":"Exists","Area":173.528,"Glacier Melt Record Date":null,"Latitude":60.755014,"Longitude":-144.8796,"Area Analysis Date":"2014-12-01","Temperature in F":52.53},{"Unnamed: 0":311,"Glacier Name":"Allen Glacier","Glacier Exists?":"Exists","Area":173.528,"Glacier Melt Record Date":null,"Latitude":60.755014,"Longitude":-144.8796,"Area Analysis Date":"2014-12-01","Temperature in F":52.53},{"Unnamed: 0":312,"Glacier Name":"Allen Glacier","Glacier Exists?":"Exists","Area":173.528,"Glacier Melt Record Date":null,"Latitude":60.755014,"Longitude":-144.8796,"Area Analysis Date":"2014-12-01","Temperature in F":52.53},{"Unnamed: 0":313,"Glacier Name":"Allen Glacier","Glacier Exists?":"Exists","Area":173.528,"Glacier Melt Record Date":null,"Latitude":60.755014,"Longitude":-144.8796,"Area Analysis Date":"2014-12-01","Temperature in F":52.53},{"Unnamed: 0":314,"Glacier Name":"Allen Glacier","Glacier Exists?":"Exists","Area":173.528,"Glacier Melt Record Date":null,"Latitude":60.755014,"Longitude":-144.8796,"Area Analysis Date":"2014-12-01","Temperature in F":52.53},{"Unnamed: 0":315,"Glacier Name":"Allen Glacier","Glacier Exists?":"Exists","Area":173.528,"Glacier Melt Record Date":null,"Latitude":60.755014,"Longitude":-144.8796,"Area Analysis Date":"2014-12-01","Temperature in F":52.53},{"Unnamed: 0":316,"Glacier Name":"Allen Glacier","Glacier Exists?":"Exists","Area":173.528,"Glacier Melt Record Date":null,"Latitude":60.755014,"Longitude":-144.8796,"Area Analysis Date":"2014-12-01","Temperature in F":52.53},{"Unnamed: 0":317,"Glacier Name":"Allen Glacier","Glacier Exists?":"Exists","Area":173.528,"Glacier Melt Record Date":null,"Latitude":60.755014,"Longitude":-144.8796,"Area Analysis Date":"2014-12-01","Temperature in F":52.53},{"Unnamed: 0":318,"Glacier Name":"Allen Glacier","Glacier Exists?":"Exists","Area":173.528,"Glacier Melt Record Date":null,"Latitude":60.755014,"Longitude":-144.8796,"Area Analysis Date":"2014-12-01","Temperature in F":52.53},{"Unnamed: 0":319,"Glacier Name":"Allen Glacier","Glacier Exists?":"Exists","Area":173.528,"Glacier Melt Record Date":null,"Latitude":60.755014,"Longitude":-144.8796,"Area Analysis Date":"2014-12-01","Temperature in F":52.53},{"Unnamed: 0":320,"Glacier Name":"Allen Glacier","Glacier Exists?":"Exists","Area":173.528,"Glacier Melt Record Date":null,"Latitude":60.755014,"Longitude":-144.8796,"Area Analysis Date":"2014-12-01","Temperature in F":52.53},{"Unnamed: 0":321,"Glacier Name":"Allen Glacier","Glacier Exists?":"Exists","Area":173.528,"Glacier Melt Record Date":null,"Latitude":60.755014,"Longitude":-144.8796,"Area Analysis Date":"2014-12-01","Temperature in F":52.53},{"Unnamed: 0":322,"Glacier Name":"Allen Glacier","Glacier Exists?":"Exists","Area":173.528,"Glacier Melt Record Date":null,"Latitude":60.755014,"Longitude":-144.8796,"Area Analysis Date":"2014-12-01","Temperature in F":52.53},{"Unnamed: 0":323,"Glacier Name":"Allen Glacier","Glacier Exists?":"Exists","Area":173.528,"Glacier Melt Record Date":null,"Latitude":60.755014,"Longitude":-144.8796,"Area Analysis Date":"2014-12-01","Temperature in F":52.53},{"Unnamed: 0":324,"Glacier Name":"Allen Glacier","Glacier Exists?":"Exists","Area":173.528,"Glacier Melt Record Date":null,"Latitude":60.755014,"Longitude":-144.8796,"Area Analysis Date":"2014-12-01","Temperature in F":52.53},{"Unnamed: 0":325,"Glacier Name":"Allen Glacier","Glacier Exists?":"Exists","Area":173.528,"Glacier Melt Record Date":null,"Latitude":60.755014,"Longitude":-144.8796,"Area Analysis Date":"2014-12-01","Temperature in F":52.53},{"Unnamed: 0":326,"Glacier Name":"Allen Glacier","Glacier Exists?":"Exists","Area":173.528,"Glacier Melt Record Date":null,"Latitude":60.755014,"Longitude":-144.8796,"Area Analysis Date":"2014-12-01","Temperature in F":52.53},{"Unnamed: 0":327,"Glacier Name":"Allen Glacier","Glacier Exists?":"Exists","Area":173.528,"Glacier Melt Record Date":null,"Latitude":60.755014,"Longitude":-144.8796,"Area Analysis Date":"2014-12-01","Temperature in F":52.53},{"Unnamed: 0":328,"Glacier Name":"Allen Glacier","Glacier Exists?":"Exists","Area":173.528,"Glacier Melt Record Date":null,"Latitude":60.755014,"Longitude":-144.8796,"Area Analysis Date":"2014-12-01","Temperature in F":52.53},{"Unnamed: 0":329,"Glacier Name":"Allen Glacier","Glacier Exists?":"Exists","Area":173.528,"Glacier Melt Record Date":null,"Latitude":60.755014,"Longitude":-144.8796,"Area Analysis Date":"2014-12-01","Temperature in F":52.53},{"Unnamed: 0":330,"Glacier Name":"Allen Glacier","Glacier Exists?":"Exists","Area":173.528,"Glacier Melt Record Date":null,"Latitude":60.755014,"Longitude":-144.8796,"Area Analysis Date":"2014-12-01","Temperature in F":52.53},{"Unnamed: 0":331,"Glacier Name":"Allen Glacier","Glacier Exists?":"Exists","Area":173.528,"Glacier Melt Record Date":null,"Latitude":60.755014,"Longitude":-144.8796,"Area Analysis Date":"2014-12-01","Temperature in F":52.53},{"Unnamed: 0":332,"Glacier Name":"Allen Glacier","Glacier Exists?":"Exists","Area":173.528,"Glacier Melt Record Date":null,"Latitude":60.755014,"Longitude":-144.8796,"Area Analysis Date":"2014-12-01","Temperature in F":52.53},{"Unnamed: 0":333,"Glacier Name":"Allen Glacier","Glacier Exists?":"Exists","Area":173.528,"Glacier Melt Record Date":null,"Latitude":60.755014,"Longitude":-144.8796,"Area Analysis Date":"2014-12-01","Temperature in F":52.53},{"Unnamed: 0":334,"Glacier Name":"Allen Glacier","Glacier Exists?":"Exists","Area":173.528,"Glacier Melt Record Date":null,"Latitude":60.755014,"Longitude":-144.8796,"Area Analysis Date":"2014-12-01","Temperature in F":52.53},{"Unnamed: 0":335,"Glacier Name":"Allen Glacier","Glacier Exists?":"Exists","Area":173.528,"Glacier Melt Record Date":null,"Latitude":60.755014,"Longitude":-144.8796,"Area Analysis Date":"2014-12-01","Temperature in F":52.53},{"Unnamed: 0":336,"Glacier Name":"Allen Glacier","Glacier Exists?":"Exists","Area":173.528,"Glacier Melt Record Date":null,"Latitude":60.755014,"Longitude":-144.8796,"Area Analysis Date":"2014-12-01","Temperature in F":52.53},{"Unnamed: 0":337,"Glacier Name":"Allen Glacier","Glacier Exists?":"Exists","Area":173.528,"Glacier Melt Record Date":null,"Latitude":60.755014,"Longitude":-144.8796,"Area Analysis Date":"2014-12-01","Temperature in F":52.53},{"Unnamed: 0":338,"Glacier Name":"Allen Glacier","Glacier Exists?":"Exists","Area":173.528,"Glacier Melt Record Date":null,"Latitude":60.755014,"Longitude":-144.8796,"Area Analysis Date":"2014-12-01","Temperature in F":52.53},{"Unnamed: 0":339,"Glacier Name":"Allen Glacier","Glacier Exists?":"Exists","Area":173.528,"Glacier Melt Record Date":null,"Latitude":60.755014,"Longitude":-144.8796,"Area Analysis Date":"2014-12-01","Temperature in F":52.53},{"Unnamed: 0":340,"Glacier Name":"Allen Glacier","Glacier Exists?":"Exists","Area":173.528,"Glacier Melt Record Date":null,"Latitude":60.755014,"Longitude":-144.8796,"Area Analysis Date":"2014-12-01","Temperature in F":52.53},{"Unnamed: 0":341,"Glacier Name":"Allen Glacier","Glacier Exists?":"Exists","Area":173.528,"Glacier Melt Record Date":null,"Latitude":60.755014,"Longitude":-144.8796,"Area Analysis Date":"2014-12-01","Temperature in F":52.53},{"Unnamed: 0":342,"Glacier Name":"Allen Glacier","Glacier Exists?":"Exists","Area":173.528,"Glacier Melt Record Date":null,"Latitude":60.755014,"Longitude":-144.8796,"Area Analysis Date":"2014-12-01","Temperature in F":52.53},{"Unnamed: 0":343,"Glacier Name":"Allen Glacier","Glacier Exists?":"Exists","Area":173.528,"Glacier Melt Record Date":null,"Latitude":60.755014,"Longitude":-144.8796,"Area Analysis Date":"2014-12-01","Temperature in F":52.53},{"Unnamed: 0":344,"Glacier Name":"Allen Glacier","Glacier Exists?":"Exists","Area":173.528,"Glacier Melt Record Date":null,"Latitude":60.755014,"Longitude":-144.8796,"Area Analysis Date":"2014-12-01","Temperature in F":52.53},{"Unnamed: 0":345,"Glacier Name":"Allen Glacier","Glacier Exists?":"Exists","Area":173.528,"Glacier Melt Record Date":null,"Latitude":60.755014,"Longitude":-144.8796,"Area Analysis Date":"2014-12-01","Temperature in F":52.53},{"Unnamed: 0":346,"Glacier Name":"Allen Glacier","Glacier Exists?":"Exists","Area":173.528,"Glacier Melt Record Date":null,"Latitude":60.755014,"Longitude":-144.8796,"Area Analysis Date":"2014-12-01","Temperature in F":52.53},{"Unnamed: 0":347,"Glacier Name":"Allen Glacier","Glacier Exists?":"Exists","Area":173.528,"Glacier Melt Record Date":null,"Latitude":60.755014,"Longitude":-144.8796,"Area Analysis Date":"2014-12-01","Temperature in F":52.53},{"Unnamed: 0":348,"Glacier Name":"Allen Glacier","Glacier Exists?":"Exists","Area":173.528,"Glacier Melt Record Date":null,"Latitude":60.755014,"Longitude":-144.8796,"Area Analysis Date":"2014-12-01","Temperature in F":52.53},{"Unnamed: 0":349,"Glacier Name":"Allen Glacier","Glacier Exists?":"Exists","Area":173.528,"Glacier Melt Record Date":null,"Latitude":60.755014,"Longitude":-144.8796,"Area Analysis Date":"2014-12-01","Temperature in F":52.53},{"Unnamed: 0":350,"Glacier Name":"Allen Glacier","Glacier Exists?":"Exists","Area":173.528,"Glacier Melt Record Date":null,"Latitude":60.755014,"Longitude":-144.8796,"Area Analysis Date":"2014-12-01","Temperature in F":52.53},{"Unnamed: 0":351,"Glacier Name":"Allen Glacier","Glacier Exists?":"Exists","Area":173.528,"Glacier Melt Record Date":null,"Latitude":60.755014,"Longitude":-144.8796,"Area Analysis Date":"2014-12-01","Temperature in F":52.53},{"Unnamed: 0":352,"Glacier Name":"Allen Glacier","Glacier Exists?":"Exists","Area":173.528,"Glacier Melt Record Date":null,"Latitude":60.755014,"Longitude":-144.8796,"Area Analysis Date":"2014-12-01","Temperature in F":52.53},{"Unnamed: 0":353,"Glacier Name":"Allen Glacier","Glacier Exists?":"Exists","Area":173.528,"Glacier Melt Record Date":null,"Latitude":60.755014,"Longitude":-144.8796,"Area Analysis Date":"2014-12-01","Temperature in F":52.53},{"Unnamed: 0":354,"Glacier Name":"Allen Glacier","Glacier Exists?":"Exists","Area":173.528,"Glacier Melt Record Date":null,"Latitude":60.755014,"Longitude":-144.8796,"Area Analysis Date":"2014-12-01","Temperature in F":52.53},{"Unnamed: 0":355,"Glacier Name":"Allen Glacier","Glacier Exists?":"Exists","Area":173.528,"Glacier Melt Record Date":null,"Latitude":60.755014,"Longitude":-144.8796,"Area Analysis Date":"2014-12-01","Temperature in F":52.53},{"Unnamed: 0":356,"Glacier Name":"Allen Glacier","Glacier Exists?":"Exists","Area":173.528,"Glacier Melt Record Date":null,"Latitude":60.755014,"Longitude":-144.8796,"Area Analysis Date":"2014-12-01","Temperature in F":52.53},{"Unnamed: 0":357,"Glacier Name":"Allen Glacier","Glacier Exists?":"Exists","Area":173.528,"Glacier Melt Record Date":null,"Latitude":60.755014,"Longitude":-144.8796,"Area Analysis Date":"2014-12-01","Temperature in F":52.53},{"Unnamed: 0":358,"Glacier Name":"Allen Glacier","Glacier Exists?":"Exists","Area":173.528,"Glacier Melt Record Date":null,"Latitude":60.755014,"Longitude":-144.8796,"Area Analysis Date":"2014-12-01","Temperature in F":52.53},{"Unnamed: 0":359,"Glacier Name":"Allen Glacier","Glacier Exists?":"Exists","Area":173.528,"Glacier Melt Record Date":null,"Latitude":60.755014,"Longitude":-144.8796,"Area Analysis Date":"2014-12-01","Temperature in F":52.53},{"Unnamed: 0":360,"Glacier Name":"Allen Glacier","Glacier Exists?":"Exists","Area":173.528,"Glacier Melt Record Date":null,"Latitude":60.755014,"Longitude":-144.8796,"Area Analysis Date":"2014-12-01","Temperature in F":52.53},{"Unnamed: 0":361,"Glacier Name":"Allen Glacier","Glacier Exists?":"Exists","Area":173.528,"Glacier Melt Record Date":null,"Latitude":60.755014,"Longitude":-144.8796,"Area Analysis Date":"2014-12-01","Temperature in F":52.53},{"Unnamed: 0":362,"Glacier Name":"Allen Glacier","Glacier Exists?":"Exists","Area":173.528,"Glacier Melt Record Date":null,"Latitude":60.755014,"Longitude":-144.8796,"Area Analysis Date":"2014-12-01","Temperature in F":52.53},{"Unnamed: 0":363,"Glacier Name":"Allen Glacier","Glacier Exists?":"Exists","Area":173.528,"Glacier Melt Record Date":null,"Latitude":60.755014,"Longitude":-144.8796,"Area Analysis Date":"2014-12-01","Temperature in F":52.53},{"Unnamed: 0":364,"Glacier Name":"Allen Glacier","Glacier Exists?":"Exists","Area":173.528,"Glacier Melt Record Date":null,"Latitude":60.755014,"Longitude":-144.8796,"Area Analysis Date":"2014-12-01","Temperature in F":52.53},{"Unnamed: 0":365,"Glacier Name":"Allen Glacier","Glacier Exists?":"Exists","Area":173.528,"Glacier Melt Record Date":null,"Latitude":60.755014,"Longitude":-144.8796,"Area Analysis Date":"2014-12-01","Temperature in F":52.53},{"Unnamed: 0":366,"Glacier Name":"Allen Glacier","Glacier Exists?":"Exists","Area":173.528,"Glacier Melt Record Date":null,"Latitude":60.755014,"Longitude":-144.8796,"Area Analysis Date":"2014-12-01","Temperature in F":52.53},{"Unnamed: 0":367,"Glacier Name":"Allen Glacier","Glacier Exists?":"Exists","Area":173.528,"Glacier Melt Record Date":null,"Latitude":60.755014,"Longitude":-144.8796,"Area Analysis Date":"2014-12-01","Temperature in F":52.53},{"Unnamed: 0":368,"Glacier Name":"Allen Glacier","Glacier Exists?":"Exists","Area":173.528,"Glacier Melt Record Date":null,"Latitude":60.755014,"Longitude":-144.8796,"Area Analysis Date":"2014-12-01","Temperature in F":52.53},{"Unnamed: 0":369,"Glacier Name":"Allen Glacier","Glacier Exists?":"Exists","Area":173.528,"Glacier Melt Record Date":null,"Latitude":60.755014,"Longitude":-144.8796,"Area Analysis Date":"2014-12-01","Temperature in F":52.53},{"Unnamed: 0":370,"Glacier Name":"Allen Glacier","Glacier Exists?":"Exists","Area":173.528,"Glacier Melt Record Date":null,"Latitude":60.755014,"Longitude":-144.8796,"Area Analysis Date":"2014-12-01","Temperature in F":52.53},{"Unnamed: 0":371,"Glacier Name":"Allen Glacier","Glacier Exists?":"Exists","Area":173.528,"Glacier Melt Record Date":null,"Latitude":60.755014,"Longitude":-144.8796,"Area Analysis Date":"2014-12-01","Temperature in F":52.53},{"Unnamed: 0":372,"Glacier Name":"Allen Glacier","Glacier Exists?":"Exists","Area":173.528,"Glacier Melt Record Date":null,"Latitude":60.755014,"Longitude":-144.8796,"Area Analysis Date":"2014-12-01","Temperature in F":52.53},{"Unnamed: 0":373,"Glacier Name":"Allen Glacier","Glacier Exists?":"Exists","Area":173.528,"Glacier Melt Record Date":null,"Latitude":60.755014,"Longitude":-144.8796,"Area Analysis Date":"2014-12-01","Temperature in F":52.53},{"Unnamed: 0":374,"Glacier Name":"Allen Glacier","Glacier Exists?":"Exists","Area":173.528,"Glacier Melt Record Date":null,"Latitude":60.755014,"Longitude":-144.8796,"Area Analysis Date":"2014-12-01","Temperature in F":52.53},{"Unnamed: 0":375,"Glacier Name":"Allen Glacier","Glacier Exists?":"Exists","Area":173.528,"Glacier Melt Record Date":null,"Latitude":60.755014,"Longitude":-144.8796,"Area Analysis Date":"2014-12-01","Temperature in F":52.53},{"Unnamed: 0":376,"Glacier Name":"Allen Glacier","Glacier Exists?":"Exists","Area":173.528,"Glacier Melt Record Date":null,"Latitude":60.755014,"Longitude":-144.8796,"Area Analysis Date":"2014-12-01","Temperature in F":52.53},{"Unnamed: 0":377,"Glacier Name":"Allen Glacier","Glacier Exists?":"Exists","Area":173.528,"Glacier Melt Record Date":null,"Latitude":60.755014,"Longitude":-144.8796,"Area Analysis Date":"2014-12-01","Temperature in F":52.53},{"Unnamed: 0":378,"Glacier Name":"Allen Glacier","Glacier Exists?":"Exists","Area":173.528,"Glacier Melt Record Date":null,"Latitude":60.755014,"Longitude":-144.8796,"Area Analysis Date":"2014-12-01","Temperature in F":52.53},{"Unnamed: 0":379,"Glacier Name":"Allen Glacier","Glacier Exists?":"Exists","Area":173.528,"Glacier Melt Record Date":null,"Latitude":60.755014,"Longitude":-144.8796,"Area Analysis Date":"2014-12-01","Temperature in F":52.53},{"Unnamed: 0":380,"Glacier Name":"Allen Glacier","Glacier Exists?":"Exists","Area":173.528,"Glacier Melt Record Date":null,"Latitude":60.755014,"Longitude":-144.8796,"Area Analysis Date":"2014-12-01","Temperature in F":52.53},{"Unnamed: 0":381,"Glacier Name":"Allen Glacier","Glacier Exists?":"Exists","Area":173.528,"Glacier Melt Record Date":null,"Latitude":60.755014,"Longitude":-144.8796,"Area Analysis Date":"2014-12-01","Temperature in F":52.53},{"Unnamed: 0":382,"Glacier Name":"Allen Glacier","Glacier Exists?":"Exists","Area":173.528,"Glacier Melt Record Date":null,"Latitude":60.755014,"Longitude":-144.8796,"Area Analysis Date":"2014-12-01","Temperature in F":52.53},{"Unnamed: 0":383,"Glacier Name":"Allen Glacier","Glacier Exists?":"Exists","Area":173.528,"Glacier Melt Record Date":null,"Latitude":60.755014,"Longitude":-144.8796,"Area Analysis Date":"2014-12-01","Temperature in F":52.53},{"Unnamed: 0":384,"Glacier Name":"Allen Glacier","Glacier Exists?":"Exists","Area":173.528,"Glacier Melt Record Date":null,"Latitude":60.755014,"Longitude":-144.8796,"Area Analysis Date":"2014-12-01","Temperature in F":52.53},{"Unnamed: 0":385,"Glacier Name":"Allen Glacier","Glacier Exists?":"Exists","Area":173.528,"Glacier Melt Record Date":null,"Latitude":60.755014,"Longitude":-144.8796,"Area Analysis Date":"2014-12-01","Temperature in F":52.53},{"Unnamed: 0":386,"Glacier Name":"Allen Glacier","Glacier Exists?":"Exists","Area":173.528,"Glacier Melt Record Date":null,"Latitude":60.755014,"Longitude":-144.8796,"Area Analysis Date":"2014-12-01","Temperature in F":52.53},{"Unnamed: 0":387,"Glacier Name":"Allen Glacier","Glacier Exists?":"Exists","Area":173.528,"Glacier Melt Record Date":null,"Latitude":60.755014,"Longitude":-144.8796,"Area Analysis Date":"2014-12-01","Temperature in F":52.53},{"Unnamed: 0":388,"Glacier Name":"Allen Glacier","Glacier Exists?":"Exists","Area":173.528,"Glacier Melt Record Date":null,"Latitude":60.755014,"Longitude":-144.8796,"Area Analysis Date":"2014-12-01","Temperature in F":52.53},{"Unnamed: 0":389,"Glacier Name":"Allen Glacier","Glacier Exists?":"Exists","Area":173.528,"Glacier Melt Record Date":null,"Latitude":60.755014,"Longitude":-144.8796,"Area Analysis Date":"2014-12-01","Temperature in F":52.53},{"Unnamed: 0":390,"Glacier Name":"Dirty Glacier","Glacier Exists?":"Exists","Area":3.4695,"Glacier Melt Record Date":null,"Latitude":60.947318,"Longitude":-148.416536,"Area Analysis Date":"2014-12-01","Temperature in F":52.53},{"Unnamed: 0":391,"Glacier Name":"Dirty Glacier","Glacier Exists?":"Exists","Area":3.4695,"Glacier Melt Record Date":null,"Latitude":60.947318,"Longitude":-148.416536,"Area Analysis Date":"2014-12-01","Temperature in F":52.53},{"Unnamed: 0":392,"Glacier Name":"Dirty Glacier","Glacier Exists?":"Exists","Area":3.4695,"Glacier Melt Record Date":null,"Latitude":60.947318,"Longitude":-148.416536,"Area Analysis Date":"2014-12-01","Temperature in F":52.53},{"Unnamed: 0":393,"Glacier Name":"Dirty Glacier","Glacier Exists?":"Exists","Area":3.4695,"Glacier Melt Record Date":null,"Latitude":60.947318,"Longitude":-148.416536,"Area Analysis Date":"2014-12-01","Temperature in F":52.53},{"Unnamed: 0":394,"Glacier Name":"Dirty Glacier","Glacier Exists?":"Exists","Area":3.4695,"Glacier Melt Record Date":null,"Latitude":60.947318,"Longitude":-148.416536,"Area Analysis Date":"2014-12-01","Temperature in F":52.53},{"Unnamed: 0":395,"Glacier Name":"Dirty Glacier","Glacier Exists?":"Exists","Area":3.4695,"Glacier Melt Record Date":null,"Latitude":60.947318,"Longitude":-148.416536,"Area Analysis Date":"2014-12-01","Temperature in F":52.53},{"Unnamed: 0":396,"Glacier Name":"Dirty Glacier","Glacier Exists?":"Exists","Area":3.4695,"Glacier Melt Record Date":null,"Latitude":60.947318,"Longitude":-148.416536,"Area Analysis Date":"2014-12-01","Temperature in F":52.53},{"Unnamed: 0":397,"Glacier Name":"Dirty Glacier","Glacier Exists?":"Exists","Area":3.4695,"Glacier Melt Record Date":null,"Latitude":60.947318,"Longitude":-148.416536,"Area Analysis Date":"2014-12-01","Temperature in F":52.53},{"Unnamed: 0":398,"Glacier Name":"Dirty Glacier","Glacier Exists?":"Exists","Area":3.4695,"Glacier Melt Record Date":null,"Latitude":60.947318,"Longitude":-148.416536,"Area Analysis Date":"2014-12-01","Temperature in F":52.53},{"Unnamed: 0":399,"Glacier Name":"Dirty Glacier","Glacier Exists?":"Exists","Area":3.4695,"Glacier Melt Record Date":null,"Latitude":60.947318,"Longitude":-148.416536,"Area Analysis Date":"2014-12-01","Temperature in F":52.53},{"Unnamed: 0":400,"Glacier Name":"Dirty Glacier","Glacier Exists?":"Exists","Area":3.4695,"Glacier Melt Record Date":null,"Latitude":60.947318,"Longitude":-148.416536,"Area Analysis Date":"2014-12-01","Temperature in F":52.53},{"Unnamed: 0":401,"Glacier Name":"Dirty Glacier","Glacier Exists?":"Exists","Area":3.4695,"Glacier Melt Record Date":null,"Latitude":60.947318,"Longitude":-148.416536,"Area Analysis Date":"2014-12-01","Temperature in F":52.53},{"Unnamed: 0":402,"Glacier Name":"Dirty Glacier","Glacier Exists?":"Exists","Area":3.4695,"Glacier Melt Record Date":null,"Latitude":60.947318,"Longitude":-148.416536,"Area Analysis Date":"2014-12-01","Temperature in F":52.53},{"Unnamed: 0":403,"Glacier Name":"Dirty Glacier","Glacier Exists?":"Exists","Area":3.4695,"Glacier Melt Record Date":null,"Latitude":60.947318,"Longitude":-148.416536,"Area Analysis Date":"2014-12-01","Temperature in F":52.53},{"Unnamed: 0":404,"Glacier Name":"Dirty Glacier","Glacier Exists?":"Exists","Area":3.4695,"Glacier Melt Record Date":null,"Latitude":60.947318,"Longitude":-148.416536,"Area Analysis Date":"2014-12-01","Temperature in F":52.53},{"Unnamed: 0":405,"Glacier Name":"Allen Glacier","Glacier Exists?":"Exists","Area":173.528,"Glacier Melt Record Date":null,"Latitude":60.755014,"Longitude":-144.8796,"Area Analysis Date":"2014-12-01","Temperature in F":52.53},{"Unnamed: 0":406,"Glacier Name":"Allen Glacier","Glacier Exists?":"Exists","Area":173.528,"Glacier Melt Record Date":null,"Latitude":60.755014,"Longitude":-144.8796,"Area Analysis Date":"2014-12-01","Temperature in F":52.53},{"Unnamed: 0":407,"Glacier Name":"Allen Glacier","Glacier Exists?":"Exists","Area":173.528,"Glacier Melt Record Date":null,"Latitude":60.755014,"Longitude":-144.8796,"Area Analysis Date":"2014-12-01","Temperature in F":52.53},{"Unnamed: 0":408,"Glacier Name":"Allen Glacier","Glacier Exists?":"Exists","Area":173.528,"Glacier Melt Record Date":null,"Latitude":60.755014,"Longitude":-144.8796,"Area Analysis Date":"2014-12-01","Temperature in F":52.53},{"Unnamed: 0":409,"Glacier Name":"Allen Glacier","Glacier Exists?":"Exists","Area":173.528,"Glacier Melt Record Date":null,"Latitude":60.755014,"Longitude":-144.8796,"Area Analysis Date":"2014-12-01","Temperature in F":52.53},{"Unnamed: 0":410,"Glacier Name":"Allen Glacier","Glacier Exists?":"Exists","Area":173.528,"Glacier Melt Record Date":null,"Latitude":60.755014,"Longitude":-144.8796,"Area Analysis Date":"2014-12-01","Temperature in F":52.53},{"Unnamed: 0":411,"Glacier Name":"Allen Glacier","Glacier Exists?":"Exists","Area":173.528,"Glacier Melt Record Date":null,"Latitude":60.755014,"Longitude":-144.8796,"Area Analysis Date":"2014-12-01","Temperature in F":52.53},{"Unnamed: 0":412,"Glacier Name":"Dirty Glacier","Glacier Exists?":"Exists","Area":3.4695,"Glacier Melt Record Date":null,"Latitude":60.947318,"Longitude":-148.416536,"Area Analysis Date":"2014-12-01","Temperature in F":52.53},{"Unnamed: 0":413,"Glacier Name":"Dirty Glacier","Glacier Exists?":"Exists","Area":3.4695,"Glacier Melt Record Date":null,"Latitude":60.947318,"Longitude":-148.416536,"Area Analysis Date":"2014-12-01","Temperature in F":52.53},{"Unnamed: 0":414,"Glacier Name":"Dirty Glacier","Glacier Exists?":"Exists","Area":3.4695,"Glacier Melt Record Date":null,"Latitude":60.947318,"Longitude":-148.416536,"Area Analysis Date":"2014-12-01","Temperature in F":52.53},{"Unnamed: 0":415,"Glacier Name":"Dirty Glacier","Glacier Exists?":"Exists","Area":3.4695,"Glacier Melt Record Date":null,"Latitude":60.947318,"Longitude":-148.416536,"Area Analysis Date":"2014-12-01","Temperature in F":52.53},{"Unnamed: 0":416,"Glacier Name":"Dirty Glacier","Glacier Exists?":"Exists","Area":3.4695,"Glacier Melt Record Date":null,"Latitude":60.947318,"Longitude":-148.416536,"Area Analysis Date":"2014-12-01","Temperature in F":52.53},{"Unnamed: 0":417,"Glacier Name":"Dirty Glacier","Glacier Exists?":"Exists","Area":3.4695,"Glacier Melt Record Date":null,"Latitude":60.947318,"Longitude":-148.416536,"Area Analysis Date":"2014-12-01","Temperature in F":52.53},{"Unnamed: 0":418,"Glacier Name":"Dirty Glacier","Glacier Exists?":"Exists","Area":3.4695,"Glacier Melt Record Date":null,"Latitude":60.947318,"Longitude":-148.416536,"Area Analysis Date":"2014-12-01","Temperature in F":52.53},{"Unnamed: 0":419,"Glacier Name":"Dirty Glacier","Glacier Exists?":"Exists","Area":3.4695,"Glacier Melt Record Date":null,"Latitude":60.947318,"Longitude":-148.416536,"Area Analysis Date":"2014-12-01","Temperature in F":52.53},{"Unnamed: 0":420,"Glacier Name":"Dirty Glacier","Glacier Exists?":"Exists","Area":3.4695,"Glacier Melt Record Date":null,"Latitude":60.947318,"Longitude":-148.416536,"Area Analysis Date":"2014-12-01","Temperature in F":52.53},{"Unnamed: 0":421,"Glacier Name":"Dirty Glacier","Glacier Exists?":"Exists","Area":3.4695,"Glacier Melt Record Date":null,"Latitude":60.947318,"Longitude":-148.416536,"Area Analysis Date":"2014-12-01","Temperature in F":52.53},{"Unnamed: 0":422,"Glacier Name":"Dirty Glacier","Glacier Exists?":"Exists","Area":3.4695,"Glacier Melt Record Date":null,"Latitude":60.947318,"Longitude":-148.416536,"Area Analysis Date":"2014-12-01","Temperature in F":52.53},{"Unnamed: 0":423,"Glacier Name":"Dirty Glacier","Glacier Exists?":"Exists","Area":3.4695,"Glacier Melt Record Date":null,"Latitude":60.947318,"Longitude":-148.416536,"Area Analysis Date":"2014-12-01","Temperature in F":52.53},{"Unnamed: 0":424,"Glacier Name":"Allen Glacier","Glacier Exists?":"Exists","Area":173.528,"Glacier Melt Record Date":null,"Latitude":60.755014,"Longitude":-144.8796,"Area Analysis Date":"2014-12-01","Temperature in F":52.53},{"Unnamed: 0":425,"Glacier Name":"Allen Glacier","Glacier Exists?":"Exists","Area":173.528,"Glacier Melt Record Date":null,"Latitude":60.755014,"Longitude":-144.8796,"Area Analysis Date":"2014-12-01","Temperature in F":52.53},{"Unnamed: 0":426,"Glacier Name":"Allen Glacier","Glacier Exists?":"Exists","Area":173.528,"Glacier Melt Record Date":null,"Latitude":60.755014,"Longitude":-144.8796,"Area Analysis Date":"2014-12-01","Temperature in F":52.53},{"Unnamed: 0":427,"Glacier Name":"Allen Glacier","Glacier Exists?":"Exists","Area":173.528,"Glacier Melt Record Date":null,"Latitude":60.755014,"Longitude":-144.8796,"Area Analysis Date":"2014-12-01","Temperature in F":52.53},{"Unnamed: 0":428,"Glacier Name":"Allen Glacier","Glacier Exists?":"Exists","Area":173.528,"Glacier Melt Record Date":null,"Latitude":60.755014,"Longitude":-144.8796,"Area Analysis Date":"2014-12-01","Temperature in F":52.53},{"Unnamed: 0":429,"Glacier Name":"Allen Glacier","Glacier Exists?":"Exists","Area":173.528,"Glacier Melt Record Date":null,"Latitude":60.755014,"Longitude":-144.8796,"Area Analysis Date":"2014-12-01","Temperature in F":52.53},{"Unnamed: 0":430,"Glacier Name":"Allen Glacier","Glacier Exists?":"Exists","Area":173.528,"Glacier Melt Record Date":null,"Latitude":60.755014,"Longitude":-144.8796,"Area Analysis Date":"2014-12-01","Temperature in F":52.53},{"Unnamed: 0":431,"Glacier Name":"Allen Glacier","Glacier Exists?":"Exists","Area":173.528,"Glacier Melt Record Date":null,"Latitude":60.755014,"Longitude":-144.8796,"Area Analysis Date":"2014-12-01","Temperature in F":52.53},{"Unnamed: 0":432,"Glacier Name":"Allen Glacier","Glacier Exists?":"Exists","Area":173.528,"Glacier Melt Record Date":null,"Latitude":60.755014,"Longitude":-144.8796,"Area Analysis Date":"2014-12-01","Temperature in F":52.53},{"Unnamed: 0":433,"Glacier Name":"Allen Glacier","Glacier Exists?":"Exists","Area":173.528,"Glacier Melt Record Date":null,"Latitude":60.755014,"Longitude":-144.8796,"Area Analysis Date":"2014-12-01","Temperature in F":52.53},{"Unnamed: 0":434,"Glacier Name":"Allen Glacier","Glacier Exists?":"Exists","Area":173.528,"Glacier Melt Record Date":null,"Latitude":60.755014,"Longitude":-144.8796,"Area Analysis Date":"2014-12-01","Temperature in F":52.53},{"Unnamed: 0":435,"Glacier Name":"Allen Glacier","Glacier Exists?":"Exists","Area":173.528,"Glacier Melt Record Date":null,"Latitude":60.755014,"Longitude":-144.8796,"Area Analysis Date":"2014-12-01","Temperature in F":52.53},{"Unnamed: 0":436,"Glacier Name":"Allen Glacier","Glacier Exists?":"Exists","Area":173.528,"Glacier Melt Record Date":null,"Latitude":60.755014,"Longitude":-144.8796,"Area Analysis Date":"2014-12-01","Temperature in F":52.53},